     2.10           OBSERVATION DATA    G (GPS)             RINEX VERSION / TYPE
Convert                                 12-Aug-2008 17:04   PGM / RUN BY / DATE 
Signal Strength values S1,S2 are in dBHz                    COMMENT             
                                                            MARKER NAME         
                                                            MARKER NUMBER       
                                                            OBSERVER / AGENCY   
SVA05050095         NOV RT2             2.210               REC # / TYPE / VERS 
                                                            ANT # / TYPE        
  39.910376520   56.30065983  49.269912651                  APPROX POSITION XYZ 
        0.0000        0.0000        0.0000                  ANTENNA: DELTA H/E/N
     1     1                                                WAVELENGTH FACT L1/2
     1     1     7   G01   G06   G10   G16   G17   G21   G22WAVELENGTH FACT L1/2
     1     1     2   G26   G30                              WAVELENGTH FACT L1/2
                                                            COMMENT             
                                                            COMMENT             
                                                            COMMENT             
                                                            COMMENT             
                                                            COMMENT             
     8    C1    L1    D1    S1    P2    L2    D2    S2      # / TYPES OF OBSERV 
     1.000                                                  INTERVAL            
  2006    10    29    01    44    23.0000000    GPS         TIME OF FIRST OBS   
  2006    10    29    01    54    54.0000000    GPS         TIME OF LAST OBS    
    14                                                      LEAP SECONDS        
                                                            END OF HEADER       
 06 10 29 01 44 23.0000000  0  9G10G26G21G22G 6G30G 1G17G16                     
  23566504.01004 138481652.76614      3817.44504        37.900  

  20419315.83045 121943062.50145     -1549.34445        39.300  

  20774250.81705 123808259.07315      1891.05905        39.000  

  22179966.49004 131195352.99614     -3351.39504        38.600  

  22009261.57804 130298287.16314      -752.49204        38.700  

  22386473.05604 132280552.06214      3017.99204        38.600  

  19614024.06805 117711226.74015       421.52705        39.500  

  22294596.96104 131797734.18414     -2508.65604        38.500  

  24086554.12704 141214529.17014      2340.66404        38.000  

 06 10 29 01 44 24.0000000  0  9G10G26G21G22G 6G30G 1G17G16                     
  23565777.49344 138477835.15554      3817.19944        38.100  

  20419610.64945 121944612.05145     -1549.59045        39.200  

  20773891.02205 123806368.42115      1890.48805        39.100  

  22180604.29044 131198704.44554     -3351.54744        38.500  

  22009404.88204 130299040.14314      -753.25004        38.300  

  22385898.80604 132277534.13214      3018.01604        38.500  

  19613943.89505 117710805.42215       420.97305        39.600  

  22295074.34344 131800243.02654     -2509.22744        38.500  

  24086108.79104 141212188.98814      2339.68004        37.800  

 06 10 29 01 44 25.0000000  0  9G10G26G21G22G 6G30G 1G17G16                     
  23565051.04744 138474017.52244      3817.57444        37.900  

  20419905.55845 121946161.83745     -1550.00445        39.200  

  20773531.35645 123804478.12655      1890.30545        39.300  

  22181242.09144 131202056.07144     -3351.48044        38.600  

  22009548.32804 130299793.73714      -754.12904        38.600  

  22385324.55304 132274516.27514      3017.97704        38.400  

  19613863.83705 117710384.65615       420.55505        39.600  

  22295551.84104 131802752.21304     -2509.35204        38.400  

  24085663.57204 141209849.19314      2339.60504        37.600  

 06 10 29 01 44 26.0000000  0  9G10G26G21G22G 6G30G 1G17G16                     
  23564324.56904 138470199.85404      3817.44904        38.100  

  20420200.50345 121947711.85045     -1550.29345        39.100  

  20773171.69944 123802588.22744      1889.79344        38.800  

  22181880.01544 131205407.90044     -3351.88344        38.700  

  22009691.86204 130300547.94414      -754.58204        38.600  

  22384750.25504 132271498.46614      3017.76604        38.300  

  19613783.87605 117709964.43415       419.68805        39.500  

  22296029.38404 131805261.74414     -2509.69904        38.500  

  24085218.37404 141207509.79214      2339.23004        37.800  

 06 10 29 01 44 27.0000000  0  9G10G26G21G22G 6G30G 1G17G16                     
  23563598.10604 138466382.34514      3817.53504        38.000  

  20420495.49045 121949262.27645     -1550.69945        39.300  

  20772812.19145 123800698.91345      1889.14545        39.100  

  22182517.89144 131208760.09644     -3352.32044        38.500  

  22009835.53204 130301302.97414      -755.53504        38.500  

  22384176.07004 132268480.93214      3017.48004        38.500  

  19613704.03605 117709544.93115       419.03505        39.600  

  22296506.99004 131807771.83114     -2510.17204        38.400  

  24084773.24904 141205170.98314      2338.62904        37.800  

 06 10 29 01 44 28.0000000  0  9G10G26G21G22G 6G30G 1G17G16                     
  23562871.71804 138462565.05514      3817.54704        38.100  

  20420790.57245 121950813.16145     -1550.97345        39.200  

  20772452.79345 123798810.23545      1888.33645        39.100  

  22183155.92544 131212112.72544     -3352.91444        38.500  

  22009979.38944 130302058.86754      -756.37944        38.700  

  22383601.95604 132265463.69914      3017.30504        38.200  

  19613624.36305 117709126.22715       418.42605        39.600  

  22296984.77304 131810282.53014     -2511.01604        38.600  

  24084328.42104 141202832.83114      2337.79304        38.000  

 06 10 29 01 44 29.0000000  0  9G10G26G21G22G 6G30G 1G17G16                     
  23562145.36404 138458748.00514      3817.09804        38.100  

  20421085.78805 121952364.51805     -1551.79305        39.200  

  20772093.41745 123796922.13345      1887.85945        39.200  

  22183794.04744 131215465.75544     -3353.21144        38.600  

  22010123.38944 130302815.61844      -757.50044        38.600  

  22383027.80404 132262446.75814      3017.03104        38.300  

  19613544.83305 117708708.27915       417.65605        39.600  

  22297462.67704 131812793.79514     -2511.69104        38.300  

  24083883.57004 141200495.30014      2337.19104        37.800  

 06 10 29 01 44 30.0000000  0  9G10G26G21G22G 6G30G 1G17G16                     
  23561419.04404 138454930.96714      3816.97304        37.900  

  20421381.07445 121953916.14655     -1551.84445        39.400  

  20771734.18445 123795034.53145      1887.43845        39.000  

  22184432.14544 131218819.05744     -3353.46544        38.500  

  22010267.52744 130303573.04244      -757.91844        38.600  

  22382453.71704 132259430.01014      3016.37504        38.500  

  19613465.44105 117708290.98115       416.93805        39.400  

  22297940.53005 131815305.46715     -2511.57005        38.900  

  24083438.78104 141198158.24814      2336.91404        37.900  

 06 10 29 01 44 31.0000000  0  9G10G26G21G22G 6G30G 1G17G16                     
  23560692.71804 138451114.07414      3816.67204        38.100  

  20421676.38405 121955468.17205     -1552.25005        39.000  

  20771375.10205 123793147.46305      1886.85205        39.000  

  22185070.31604 131222172.69704     -3353.75004        38.400  

  22010411.80144 130304331.26044      -758.53544        38.600  

  22381879.72004 132256413.44214      3016.26204        38.400  

  19613386.15605 117707874.34315       416.40205        39.600  

  22298418.61244 131817817.66054     -2512.26644        38.500  

  24082994.13704 141195821.75714      2336.05104        37.800  

 06 10 29 01 44 32.0000000  0  9G10G26G21G22G 6G30G 1G17G16                     
  23559966.44544 138447297.30554      3816.70344        38.000  

  20421971.79405 121957020.57515     -1552.66005        39.300  

  20771016.06505 123791260.92815      1886.27305        39.000  

  22185708.57204 131225526.68014     -3354.18004        38.500  

  22010556.20304 130305090.25004      -759.23004        38.600  

  22381305.78904 132253397.09414      3016.27704        38.400  

  19613307.01345 117707458.42955       415.38345        39.400  

  22298896.68444 131820330.35744     -2512.89544        38.400  

  24082549.69804 141193485.83614      2335.77004        37.400  

 06 10 29 01 44 33.0000000  0  9G10G26G21G22G 6G30G 1G17G16                     
  23559240.14644 138443480.66944      3816.45344        38.000  

  20422267.30005 121958573.34915     -1553.14105        39.400  

  20770657.17905 123789374.92115      1885.66805        39.100  

  22186346.88004 131228880.98414     -3354.50004        38.500  

  22010700.76804 130305850.01714      -760.18004        38.600  

  22380731.82804 132250380.95914      3016.14804        38.500  

  19613227.99905 117707043.18505       414.95705        39.600  

  22299374.92004 131822843.57904     -2513.72304        38.200  

  24082105.29304 141191150.47014      2335.08604        37.700  

 06 10 29 01 44 34.0000000  0  9G10G26G21G22G 6G30G 1G17G16                     
  23558513.90844 138439664.15444      3816.79744        38.000  

  20422562.84205 121960126.50915     -1553.41005        39.000  

  20770298.44545 123787489.47955      1885.30945        39.000  

  22186985.29204 131232235.63714     -3354.60504        38.500  

  22010845.51204 130306610.56514      -760.87504        38.500  

  22380157.93704 132247365.08514      3015.98804        38.300  

  19613149.13705 117706628.65915       414.16805        39.600  

  22299853.25844 131825357.28854     -2513.70344        38.700  

  24081660.98604 141188815.65814      2334.59804        37.900  

 06 10 29 01 44 35.0000000  0  9G10G26G21G22G 6G30G 1G17G16                     
  23557787.63744 138435847.80244      3816.31344        37.700  

  20422858.46805 121961680.06315     -1553.84805        39.100  

  20769939.73705 123785604.60705      1884.49605        39.000  

  22187623.68904 131235590.66114     -3355.29704        38.500  

  22010990.39904 130307371.91914      -761.93404        38.700  

  22379584.10204 132244349.43814      3015.43404        38.500  

  19613070.39505 117706214.84815       413.39505        39.600  

  22300331.69304 131827871.51504     -2514.41804        38.600  

  24081216.75544 141186481.39954      2333.86744        37.600  

 06 10 29 01 44 36.0000000  0  9G10G26G21G22G 6G30G 1G17G16                     
  23557061.45544 138432031.58344      3816.32844        38.200  

  20423154.14705 121963234.01815     -1554.14805        39.100  

  20769581.19705 123783720.27915      1884.12905        39.000  

  22188262.23704 131238946.03314     -3355.51204        38.600  

  22011135.43704 130308134.06414      -762.58204        38.600  

  22379010.36344 132241334.04054      3015.33244        38.300  

  19612991.80005 117705801.74015       412.60205        39.600  

  22300810.21204 131830386.30614     -2514.91404        38.400  

  24080772.66204 141184147.76404      2333.41804        38.100  

 06 10 29 01 44 37.0000000  0  9G10G26G21G22G 6G30G 1G17G16                     
  23556335.27904 138428215.45004      3816.41404        37.900  

  20423449.94405 121964788.30015     -1554.53505        39.300  

  20769222.75005 123781836.44215      1883.58205        38.900  

  22188900.76604 131242301.69214     -3355.61704        38.500  

  22011280.57204 130308896.93814      -763.23404        38.700  

  22378436.62944 132238318.80144      3015.15644        38.300  

  19612913.30805 117705389.29615       412.09405        39.700  

  22301288.83104 131832901.52714     -2515.53504        38.400  

  24080328.65504 141181814.61014      2332.98404        37.900  

 06 10 29 01 44 38.0000000  0  9G10G26G21G22G 6G30G 1G17G16                     
  23555609.09444 138424399.36654      3816.18044        38.200  

  20423745.76145 121966342.87155     -1554.66045        39.300  

  20768864.38645 123779953.06255      1883.13745        39.200  

  22189539.34844 131245657.60354     -3356.00044        38.500  

  22011425.87644 130309660.48954      -763.91844        38.500  

  22377862.91744 132235303.70944      3015.03544        38.500  

  19612834.93945 117704977.43355       411.45745        39.600  

  22301767.54544 131835417.16154     -2515.82444        38.500  

  24079884.70744 141179481.92354      2332.63344        37.900  

 06 10 29 01 44 39.0000000  0  9G10G26G21G22G 6G30G 1G17G16                     
  23554882.94744 138420583.47444      3816.09844        38.200  

  20424041.69705 121967897.90805     -1555.25005        39.200  

  20768506.05105 123778070.28905      1882.57405        39.100  

  22190178.04704 131249013.93304     -3356.66004        38.700  

  22011571.34304 130310424.88404      -764.67204        38.400  

  22377289.28944 132232288.91644      3014.54744        38.400  

  19612756.69805 117704566.34405       410.75805        39.600  

  22302246.37704 131837933.36904     -2516.68404        38.600  

  24079440.94704 141177149.89004      2331.71504        37.700  

 06 10 29 01 44 40.0000000  0  9G10G26G21G22G 6G30G 1G17G16                     
  23554156.85944 138416767.82244      3815.79344        37.800  

  20424337.73005 121969453.41015     -1555.83205        39.200  

  20768147.88005 123776188.18315      1881.85505        39.100  

  22190816.83604 131252370.71214     -3357.00804        38.500  

  22011716.93604 130311190.19514      -765.85204        38.700  

  22376715.62944 132229274.45544      3014.23844        38.400  

  19612678.64005 117704156.08615       409.79705        39.600  

  22302725.28904 131840450.20214     -2516.79304        38.300  

  24078997.28704 141174818.51114      2331.08204        38.000  

 06 10 29 01 44 41.0000000  0  9G10G26G21G22G 6G30G 1G17G16                     
  23553430.78944 138412952.37144      3815.51244        38.100  

  20424633.78845 121971009.36155     -1556.22745        39.300  

  20767789.82705 123774306.65915      1881.38705        39.000  

  22191455.67504 131255727.86214     -3357.28504        38.300  

  22011862.69504 130311956.29314      -766.42604        38.500  

  22376142.03344 132226260.26744      3014.03144        38.500  

  19612600.70105 117703746.55115       409.18405        39.700  

  22303204.31204 131842967.61314     -2517.73804        38.500  

  24078553.73404 141172487.72914      2330.57004        37.800  

 06 10 29 01 44 42.0000000  0  9G10G26G21G22G 6G30G 1G17G16                     
  23552704.75304 138409136.99204      3815.28904        37.800  

  20424929.90905 121972565.61105     -1556.41005        39.100  

  20767431.86305 123772425.62815      1880.92605        39.000  

  22192094.60304 131259085.30614     -3357.71504        38.500  

  22012008.64704 130312723.14514      -767.22304        38.300  

  22375568.47504 132223246.24904      3013.87104        38.500  

  19612522.90505 117703337.66515       408.60505        39.700  

  22303683.43144 131845485.44854     -2518.16044        38.600  

  24078110.23604 141170157.48114      2329.73404        37.900  

 06 10 29 01 44 43.0000000  0  9G10G26G21G22G 6G30G 1G17G16                     
  23551978.75004 138405321.74414      3815.05504        37.900  

  20425226.14605 121974122.27515     -1556.97705        39.000  

  20767074.03145 123770545.14455      1880.14145        39.100  

  22192733.56304 131262443.10114     -3358.04304        38.300  

  22012154.71204 130313490.77414      -768.02004        38.600  

  22374994.96604 132220232.46114      3013.46104        38.200  

  19612445.22905 117702929.49215       407.53505        39.500  

  22304162.68344 131848003.79944     -2518.58644        38.600  

  24077666.90304 141167827.76614      2329.18004        38.000  

 06 10 29 01 44 44.0000000  0  9G10G26G21G22G 6G30G 1G17G16                     
  23551252.76444 138401506.61554      3814.95344        37.900  

  20425522.43945 121975679.28155     -1557.09045        39.200  

  20766716.29245 123768665.18945      1879.88345        39.100  

  22193372.59644 131265801.21854     -3358.02344        38.800  

  22012300.93544 130314259.16854      -768.80144        38.600  

  22374421.50344 132217218.87054      3013.61344        38.600  

  19612367.70745 117702521.99455       407.11345        39.400  

  22304641.97644 131850522.65644     -2519.23044        38.600  

  24077223.63744 141165498.61354      2329.27044        37.900  

 06 10 29 01 44 45.0000000  0  9G10G26G21G22G 6G30G 1G17G16                     
  23550526.76504 138397691.50404      3815.03104        38.100  

  20425818.76705 121977236.58105     -1557.60205        39.300  

  20766358.66245 123766785.66745      1879.56645        39.000  

  22194011.70844 131269159.56644     -3358.31344        38.400  

  22012447.24804 130315028.22304      -769.38304        38.600  

  22373848.00104 132214205.39904      3013.54704        38.400  

  19612290.26745 117702115.06845       406.72345        39.600  

  22305121.42544 131853041.87944     -2519.19144        38.500  

  24076780.51604 141163169.90304      2328.52704        37.900  

 06 10 29 01 44 46.0000000  0  9G10G26G21G22G 6G30G 1G17G16                     
  23549800.79104 138393876.49414      3814.89104        37.900  

  20426115.17505 121978794.19015     -1557.68005        39.000  

  20766001.07305 123764906.65005      1878.87105        39.000  

  22194650.81204 131272518.20704     -3358.58604        38.600  

  22012593.75044 130315798.02454      -770.24644        38.700  

  22373274.56644 132211192.14254      3012.91444        38.300  

  19612212.94905 117701708.83505       405.80505        39.500  

  22305600.94104 131855561.59904     -2520.08204        38.600  

  24076337.46104 141160841.70914      2328.27704        37.800  

 06 10 29 01 44 47.0000000  0  9G10G26G21G22G 6G30G 1G17G16                     
  23549074.79304 138390061.51814      3814.73804        37.900  

  20426411.63245 121980352.10755     -1558.20745        39.000  

  20765643.58405 123763028.08915      1878.17205        38.900  

  22195289.97604 131275877.09714     -3358.88704        38.500  

  22012740.36344 130316568.49744      -770.79744        38.600  

  22372701.16304 132208178.96804      3013.17204        38.500  

  19612135.76805 117701303.17515       405.18805        39.700  

  22306080.52804 131858081.72114     -2520.29704        38.300  

  24075894.49804 141158514.03014      2327.38304        37.900  

 06 10 29 01 44 48.0000000  0  9G10G26G21G22G 6G30G 1G17G16                     
  23548348.82344 138386246.58454      3815.08644        38.200  

  20426708.16405 121981910.29905     -1558.19505        39.100  

  20765286.21305 123761149.97915      1877.72305        39.200  

  22195929.22804 131279236.25114     -3359.33604        38.600  

  22012887.11704 130317339.66904      -771.49204        38.700  

  22372127.80704 132205165.96814      3013.09004        38.500  

  19612058.68505 117700898.13015       404.76205        39.700  

  22306560.13804 131860602.24414     -2520.52704        38.200  

  24075451.56704 141156186.77014      2326.90204        37.600  

 06 10 29 01 44 49.0000000  0  9G10G26G21G22G 6G30G 1G17G16                     
  23547622.83704 138382431.71504      3814.70304        37.800  

  20427004.69705 121983468.83315     -1558.82005        39.400  

  20764928.89005 123759272.36015      1877.26205        39.100  

  22196568.50604 131282595.68014     -3359.63704        38.400  

  22013034.02804 130318111.56614      -772.32404        38.500  

  22371554.49104 132202153.14814      3012.77704        38.600  

  19611981.72605 117700493.74515       403.95705        39.800  

  22307039.85804 131863123.24814     -2520.98804        38.500  

  24075008.82904 141153860.04014      2326.45304        37.800  

 06 10 29 01 44 50.0000000  0  9G10G26G21G22G 6G30G 1G17G16                     
  23546896.92344 138378616.92954      3814.87544        37.900  

  20427301.32845 121985027.67755     -1558.76245        39.300  

  20764571.69445 123757395.22555      1876.91445        39.000  

  22197207.79344 131285955.38554     -3359.77044        38.600  

  22013181.03844 130318884.18254      -772.96944        38.600  

  22370981.23544 132199140.48554      3012.35244        38.500  

  19611904.88745 117700089.97755       403.64145        39.600  

  22307519.68944 131865644.69754     -2521.73444        38.500  

  24074566.15744 141151533.80054      2326.06644        37.700  

 06 10 29 01 44 51.0000000  0  9G10G26G21G22G 6G30G 1G17G16                     
  23546171.02904 138374802.21904      3814.61304        37.900  

  20427598.04005 121986586.85105     -1559.46905        39.200  

  20764214.60345 123755518.56145      1876.18445        39.200  

  22197847.19604 131289315.37604     -3360.51204        38.400  

  22013328.21604 130319657.48304      -773.53904        38.600  

  22370407.99304 132196127.93604      3012.48404        38.600  

  19611828.19505 117699686.85305       402.82405        39.600  

  22307999.57704 131868166.58204     -2522.30904        38.400  

  24074123.57544 141149208.06644      2325.40644        37.900  

 06 10 29 01 44 52.0000000  0  9G10G26G21G22G 6G30G 1G17G16                     
  23545445.16004 138370987.64414      3814.40604        38.000  

  20427894.81705 121988146.38915     -1559.68005        39.300  

  20763857.59645 123753642.46045      1875.96545        39.100  

  22198486.63304 131292675.70714     -3360.52004        38.600  

  22013475.51904 130320431.62314      -774.59404        38.700  

  22369834.79004 132193115.69414      3011.92204        38.500  

  19611751.63705 117699284.44215       401.87905        39.700  

  22308479.55904 131870688.96614     -2522.58604        38.600  

  24073681.09304 141146882.89604      2324.79704        37.800  

 06 10 29 01 44 53.0000000  0  9G10G26G21G22G 6G30G 1G17G16                     
  23544719.32204 138367173.30314      3814.39104        38.100  

  20428191.67205 121989706.42515     -1560.37105        39.300  

  20763500.68945 123751766.99045      1875.13745        39.100  

  22199126.19004 131296036.47514     -3361.12504        38.400  

  22013622.95604 130321206.59514      -775.41404        38.600  

  22369261.66704 132190103.72714      3011.78904        38.400  

  19611675.21205 117698882.79815       401.21505        39.700  

  22308959.66404 131873211.94814     -2523.29704        38.500  

  24073238.72304 141144558.37514      2324.29304        37.800  

 06 10 29 01 44 54.0000000  0  9G10G26G21G22G 6G30G 1G17G16                     
  23543993.50904 138363359.18314      3813.60204        37.800  

  20428488.63245 121991266.89855     -1560.79345        39.200  

  20763143.92245 123749892.13045      1874.59445        39.000  

  22199765.81004 131299397.62114     -3361.36304        38.600  

  22013770.58704 130321982.40514      -776.19104        38.500  

  22368688.55604 132187092.04614      3011.54304        38.400  

  19611598.93905 117698481.93215       400.26605        39.500  

  22309439.86804 131875735.51314     -2523.87904        38.300  

  24072796.51244 141142234.48754      2323.54344        37.600  

 06 10 29 01 44 55.0000000  0  9G10G26G21G22G 6G30G 1G17G16                     
  23543267.75304 138359545.15614      3814.27304        38.000  

  20428785.68545 121992827.78045     -1561.00445        39.000  

  20762787.25345 123748017.85445      1873.82845        39.000  

  22200405.49404 131302759.18014     -3361.85204        38.600  

  22013918.41704 130322759.04914      -776.84404        38.600  

  22368115.50104 132184080.64514      3011.23404        38.600  

  19611522.79205 117698081.78815       399.91005        39.700  

  22309920.19204 131878259.61914     -2524.30904        38.500  

  24072354.39944 141139911.18044      2323.13344        37.800  

 06 10 29 01 44 56.0000000  0  9G10G26G21G22G 6G30G 1G17G16                     
  23542542.00244 138355731.32454      3813.73844        38.000  

  20429082.76645 121994389.01345     -1561.53945        39.400  

  20762430.67805 123746144.10205      1873.66405        38.900  

  22201045.27504 131306121.03814     -3362.01204        38.600  

  22014066.36704 130323536.45214      -777.69904        38.300  

  22367542.48804 132181069.44514      3011.21904        38.500  

  19611446.76645 117697682.33455       399.25445        39.600  

  22310400.58544 131880784.20354     -2524.89844        38.500  

  24071912.40944 141137588.44344      2322.63744        37.800  

 06 10 29 01 44 57.0000000  0  9G10G26G21G22G 6G30G 1G17G16                     
  23541816.28604 138351917.45104      3813.99604        38.100  

  20429379.93845 121995950.50345     -1561.53145        39.300  

  20762074.20005 123744270.75115      1873.18005        39.100  

  22201685.02804 131309483.09314     -3362.07804        38.600  

  22014214.41744 130324314.49454      -778.28144        38.500  

  22366969.51204 132178058.34214      3010.96104        38.600  

  19611370.85105 117697283.44205       398.69505        39.500  

  22310881.08004 131883309.16904     -2525.37904        38.400  

  24071470.51304 141135266.11604      2322.16804        37.700  

 06 10 29 01 44 58.0000000  0  9G10G26G21G22G 6G30G 1G17G16                     
  23541090.54104 138348103.69014      3813.59804        37.900  

  20429677.12245 121997512.32145     -1561.73045        39.000  

  20761717.81605 123742397.92615      1872.66005        39.200  

  22202324.82804 131312845.47414     -3362.70304        38.600  

  22014362.61144 130325093.26244      -779.23444        38.500  

  22366396.57004 132175047.42314      3010.86704        38.500  

  19611295.06705 117696885.21215       397.82405        39.600  

  22311361.71704 131885834.57414     -2525.54704        38.400  

  24071028.66104 141132944.32314      2321.42204        37.800  

 06 10 29 01 44 59.0000000  0  9G10G26G21G22G 6G30G 1G17G16                     
  23540364.82704 138344290.01114      3813.41804        38.000  

  20429974.35845 121999074.51745     -1562.62945        39.300  

  20761361.53305 123740525.60915      1871.93805        39.000  

  22202964.67804 131316208.13514     -3362.98004        38.400  

  22014510.93944 130325872.78844      -779.83644        38.600  

  22365823.67104 132172036.68814      3010.68804        38.300  

  19611219.41045 117696487.63955       397.25445        39.600  

  22311842.36404 131888360.46814     -2526.05504        38.400  

  24070586.95104 141130623.03314      2321.21904        37.700  

 06 10 29 01 45  0.0000000  0  9G10G26G21G22G 6G30G 1G17G16                     
  23539639.12344 138340476.47254      3813.50044        37.900  

  20430271.69645 122000637.03745     -1562.64845        39.300  

  20761005.33645 123738653.79955      1871.62545        39.000  

  22203604.60344 131319571.12154     -3363.16444        38.600  

  22014659.42944 130326653.07844      -780.73444        38.600  

  22365250.78704 132169026.18614      3010.17604        38.400  

  19611143.87845 117696090.76145       396.49645        39.700  

  22312323.13744 131890886.87654     -2526.78544        38.400  

  24070145.31604 141128302.32014      2320.54304        37.800  

 06 10 29 01 45  1.0000000  0  9G10G26G21G22G 6G30G 1G17G16                     
  23538913.45544 138336663.05044      3813.48844        37.900  

  20430569.07705 122002199.96105     -1563.04305        39.200  

  20760649.23905 123736782.54305      1871.03505        39.100  

  22204244.58104 131322934.45304     -3363.30504        38.700  

  22014808.06004 130327434.15004      -781.69504        38.600  

  22364677.93704 132166015.88514      3010.14804        38.400  

  19611068.46645 117695694.56545       395.82845        39.300  

  22312803.95604 131893413.76004     -2527.00404        38.300  

  24069703.80404 141125982.16414      2319.79704        37.900  

 06 10 29 01 45  2.0000000  0  9G10G26G21G22G 6G30G 1G17G16                     
  23538187.78244 138332849.65944      3813.37944        38.100  

  20430866.53605 122003763.15115     -1563.00805        39.300  

  20760293.27645 123734911.74055      1870.76645        39.200  

  22204884.64944 131326298.01554     -3363.42644        38.500  

  22014956.82444 130328215.87154      -782.02344        38.500  

  22364105.11344 132163005.71254      3010.13344        38.500  

  19610993.17145 117695298.95245       395.51245        39.400  

  22313284.89104 131895941.04014     -2527.36304        38.500  

  24069262.37304 141123662.45314      2319.66804        37.800  

 06 10 29 01 45  3.0000000  0  9G10G26G21G22G 6G30G 1G17G16                     
  23537462.09644 138329036.26744      3813.04344        38.000  

  20431164.04305 122005326.57615     -1563.46105        39.000  

  20759937.34605 123733041.32605      1870.12105        39.100  

  22205524.75844 131329661.77244     -3363.87944        38.600  

  22015105.70204 130328998.24504      -783.09804        38.600  

  22363532.31104 132159995.62204      3009.88304        38.700  

  19610917.99945 117694903.89645       394.72745        39.600  

  22313765.88004 131898468.68414     -2527.95304        38.500  

  24068821.02504 141121343.15714      2318.91404        37.900  

 06 10 29 01 45  4.0000000  0  9G10G26G21G22G 6G30G 1G17G16                     
  23536736.45744 138325223.11244      3812.91444        38.100  

  20431461.65505 122006890.50015     -1564.26605        39.300  

  20759581.52205 123731171.57515      1869.41805        39.000  

  22206164.93944 131333025.98244     -3364.32044        38.300  

  22015254.75004 130329781.50114      -783.85904        38.500  

  22362959.56504 132156985.87414      3009.52704        38.600  

  19610842.97645 117694509.66745       393.82845        39.500  

  22314246.99604 131900996.95814     -2528.63704        38.600  

  24068379.83104 141119024.54114      2318.28904        37.900  

 06 10 29 01 45  5.0000000  0  9G10G26G21G22G 6G30G 1G17G16                     
  23536010.88004 138321410.19904      3812.73004        38.100  

  20431759.34245 122008454.89155     -1564.80545        39.100  

  20759225.85105 123729302.48715      1868.66005        39.100  

  22206805.23944 131336390.61644     -3364.51244        38.400  

  22015403.96104 130330565.63914      -784.64504        38.500  

  22362386.85404 132153976.45014      3009.35204        38.400  

  19610768.10405 117694116.22705       393.11305        39.400  

  22314728.22504 131903525.82714     -2529.35904        38.400  

  24067938.72704 141116706.59114      2317.76604        37.900  

 06 10 29 01 45  6.0000000  0  9G10G26G21G22G 6G30G 1G17G16                     
  23535285.32704 138317597.42414      3812.82804        38.100  

  20432057.09005 122010019.65905     -1564.86305        39.100  

  20758870.26305 123727433.91715      1868.43805        39.000  

  22207445.59504 131339755.61504     -3364.97704        38.500  

  22015553.32704 130331350.54014      -785.27004        38.600  

  22361814.23544 132150967.24654      3009.19144        38.400  

  19610693.36505 117693723.47515       392.64805        39.700  

  22315209.55904 131906055.20814     -2529.46104        38.600  

  24067497.75604 141114389.21114      2317.14104        38.000  

 06 10 29 01 45  7.0000000  0  9G10G26G21G22G 6G30G 1G17G16                     
  23534559.81644 138313784.76454      3812.87544        37.900  

  20432354.91705 122011584.81815     -1565.48405        39.100  

  20758514.77405 123725565.88415      1867.84005        39.000  

  22208086.03104 131343120.94114     -3365.48804        38.700  

  22015702.84544 130332136.24254      -786.21944        38.600  

  22361241.67244 132147958.28244      3008.93444        38.300  

  19610618.77705 117693331.44315       391.63705        39.600  

  22315691.01804 131908585.07514     -2529.98004        38.200  

  24067056.82604 141112072.36214      2316.69504        37.700  

 06 10 29 01 45  8.0000000  0  9G10G26G21G22G 6G30G 1G17G16                     
  23533834.34744 138309972.33144      3812.36344        37.900  

  20432652.81545 122013150.42255     -1565.71945        39.300  

  20758159.42545 123723698.50855      1867.13345        39.100  

  22208726.50544 131346486.68254     -3365.80544        38.400  

  22015852.50544 130332922.76944      -786.93844        38.700  

  22360669.11944 132144949.60644      3008.36344        38.300  

  19610544.31645 117692940.16755       390.89845        39.400  

  22316172.57944 131911115.51854     -2530.58244        38.300  

  24066616.06444 141109756.17554      2315.84044        38.000  

 06 10 29 01 45  9.0000000  0  9G10G26G21G22G 6G30G 1G17G16                     
  23533108.86904 138306159.95404      3812.20704        37.900  

  20432950.81045 122014716.33445     -1565.91045        39.200  

  20757804.16405 123721831.57705      1866.55505        39.100  

  22209367.03604 131349852.66804     -3365.97704        38.500  

  22016002.33404 130333710.00404      -787.56604        38.600  

  22360096.59444 132141941.09344      3008.48044        38.500  

  19610469.98545 117692549.51845       390.25045        39.700  

  22316654.20804 131913646.41004     -2531.12504        38.400  

  24066175.41744 141107440.47644      2315.35944        37.800  

 06 10 29 01 45 10.0000000  0  9G10G26G21G22G 6G30G 1G17G16                     
  23532383.42704 138302347.62614      3812.29704        38.100  

  20433248.83605 122016282.51605     -1566.30505        39.300  

  20757448.97905 123719965.09515      1866.02005        38.900  

  22210007.66104 131353218.90414     -3366.23804        38.500  

  22016152.28144 130334497.92954      -788.20744        38.700  

  22359524.12904 132138932.69104      3008.27704        38.500  

  19610395.76205 117692159.44905       389.75405        39.600  

  22317135.91504 131916177.68614     -2531.48804        38.700  

  24065734.84504 141105125.22904      2315.12504        37.700  

 06 10 29 01 45 11.0000000  0  9G10G26G21G22G 6G30G 1G17G16                     
  23531657.95004 138298535.25614      3812.31304        37.900  

  20433546.92405 122017848.94815     -1566.66405        39.300  

  20757093.86945 123718099.01455      1865.90645        39.200  

  22210648.29804 131356585.34814     -3366.55504        38.400  

  22016302.34004 130335286.49304      -789.01204        38.800  

  22358951.64904 132135924.37714      3008.27004        38.200  

  19610321.64605 117691769.95615       389.02705        39.400  

  22317617.70204 131918709.34214     -2531.99204        38.500  

  24065294.36744 141102810.41154      2314.54744        37.800  

 06 10 29 01 45 12.0000000  0  9G10G26G21G22G 6G30G 1G17G16                     
  23530932.50544 138294722.97654      3812.46144        37.800  

  20433845.04505 122019415.67415     -1566.75005        39.100  

  20756738.83605 123716233.40305      1865.54305        39.000  

  22211288.94344 131359952.02454     -3366.71544        38.300  

  22016452.53304 130336075.73114      -789.43804        38.400  

  22358379.21104 132132916.22114      3007.99604        38.600  

  19610247.65405 117691381.06415       388.63705        39.600  

  22318099.54904 131921241.40614     -2532.10204        38.600  

  24064853.99204 141100496.06904      2314.38304        37.900  

 06 10 29 01 45 13.0000000  0  9G10G26G21G22G 6G30G 1G17G16                     
  23530207.07844 138290910.82944      3811.98444        37.900  

  20434143.24405 122020982.79415     -1567.29705        39.300  

  20756383.94605 123714368.35915      1864.52305        39.200  

  22211929.67604 131363319.05604     -3367.18004        38.500  

  22016602.86904 130336865.77214      -790.42204        38.400  

  22357806.82804 132129908.26714      3008.18004        38.600  

  19610173.77805 117690992.88615       387.68805        39.600  

  22318581.45104 131923774.00714     -2533.16404        38.300  

  24064413.68604 141098182.30014      2313.60904        37.800  

 06 10 29 01 45 14.0000000  0  9G10G26G21G22G 6G30G 1G17G16                     
  23529481.67044 138287098.83444      3812.15244        38.000  

  20434441.52145 122022550.29555     -1567.50845        39.300  

  20756029.12445 123712503.85655      1864.28945        39.000  

  22212570.44244 131366686.46554     -3367.61744        38.200  

  22016753.34144 130337656.63054      -791.39544        38.700  

  22357234.48744 132126900.59854      3007.69144        38.400  

  19610100.03645 117690605.41755       387.23445        39.700  

  22319063.47444 131926307.09854     -2533.19544        38.600  

  24063973.49944 141095869.12854      2313.00444        37.800  

 06 10 29 01 45 15.0000000  0  9G10G26G21G22G 6G30G 1G17G16                     
  23528756.31404 138283287.00304      3811.66404        38.000  

  20434739.87305 122024118.20105     -1567.98805        39.000  

  20755674.45305 123710639.94505      1863.48805        39.100  

  22213211.30204 131370054.20304     -3367.83204        38.600  

  22016903.96104 130338448.24204      -792.00404        38.600  

  22356662.21044 132123893.17844      3007.03544        38.400  

  19610026.44805 117690218.67805       386.33605        39.700  

  22319545.59004 131928840.74304     -2534.00804        38.600  

  24063533.45304 141093556.51204      2312.39804        37.900  

 06 10 29 01 45 16.0000000  0  9G10G26G21G22G 6G30G 1G17G16                     
  23528030.99504 138279475.34914      3811.62104        38.100  

  20435038.34405 122025686.54515     -1568.60905        39.200  

  20755319.87145 123708776.60855      1863.00445        39.000  

  22213852.24104 131373422.34514     -3368.41404        38.400  

  22017054.76404 130339240.69314      -792.86704        38.600  

  22356089.99604 132120885.99704      3007.04704        38.500  

  19609952.99705 117689832.66515       385.69505        39.700  

  22320027.83104 131931374.89914     -2534.48404        38.300  

  24063093.48404 141091244.53014      2311.95704        37.800  

 06 10 29 01 45 17.0000000  0  9G10G26G21G22G 6G30G 1G17G16                     
  23527305.68904 138275663.84014      3811.27004        38.200  

  20435336.85805 122027255.27515     -1569.14505        39.100  

  20754965.39445 123706913.82345      1862.31645        38.900  

  22214493.19404 131376790.80814     -3368.52004        38.500  

  22017205.72204 130340033.95014      -793.84404        38.700  

  22355517.82404 132117879.07614      3006.66004        38.400  

  19609879.68005 117689447.37315       385.07405        39.600  

  22320510.17004 131933909.60514     -2535.12904        38.300  

  24062653.64944 141088933.09754      2311.08244        38.100  

 06 10 29 01 45 18.0000000  0  9G10G26G21G22G 6G30G 1G17G16                     
  23526580.40644 138271852.48454      3811.27744        38.000  

  20435635.44405 122028824.39715     -1569.29305        39.100  

  20754611.02845 123705051.63145      1862.03545        39.300  

  22215134.27844 131380159.64954     -3368.99244        38.500  

  22017356.82104 130340827.97714      -794.35904        38.300  

  22354945.67404 132114872.40114      3006.58604        38.600  

  19609806.48245 117689062.81455       384.02745        39.500  

  22320992.60904 131936444.81414     -2535.35904        38.700  

  24062213.90604 141086622.27104      2310.89804        37.600  

 06 10 29 01 45 19.0000000  0  9G10G26G21G22G 6G30G 1G17G16                     
  23525855.14804 138268041.20904      3811.41804        38.100  

  20435934.08545 122030393.83055     -1569.43045        39.000  

  20754256.74645 123703189.90545      1861.67645        39.000  

  22215775.41344 131383528.77544     -3369.23444        38.500  

  22017508.05104 130341622.74814      -795.16804        38.600  

  22354373.54104 132111865.89014      3006.50404        38.600  

  19609733.41505 117688678.86205       383.78105        39.700  

  22321475.09404 131938980.47014     -2535.91004        38.300  

  24061774.26744 141084311.94454      2310.13744        37.900  

 06 10 29 01 45 20.0000000  0  9G10G26G21G22G 6G30G 1G17G16                     
  23525129.92844 138264230.04254      3811.08644        38.200  

  20436232.79345 122031963.60945     -1569.78945        39.200  

  20753902.56345 123701328.70545      1860.77345        39.200  

  22216416.57144 131386898.18244     -3369.45744        38.400  

  22017659.42244 130342418.22854      -795.72744        38.700  

  22353801.43044 132108859.57254      3006.12544        38.500  

  19609660.48445 117688295.58855       382.88745        39.600  

  22321957.70044 131941516.59554     -2536.44144        38.500  

  24061334.75244 141082002.14644      2309.38744        37.700  

 06 10 29 01 45 21.0000000  0  9G10G26G21G22G 6G30G 1G17G16                     
  23524404.72244 138260418.96844      3811.19944        38.000  

  20436531.57105 122033533.75305     -1570.09405        39.100  

  20753548.50505 123699468.01305      1860.48405        39.200  

  22217057.80704 131390267.90604     -3369.84404        38.600  

  22017810.95104 130343214.47704      -796.41804        38.600  

  22353229.37104 132105853.43904      3006.11704        38.300  

  19609587.66205 117687912.98105       382.53505        39.700  

  22322440.39004 131944053.19104     -2536.88304        38.300  

  24060895.31444 141079692.86344      2309.03144        37.700  

 06 10 29 01 45 22.0000000  0  9G10G26G21G22G 6G30G 1G17G16                     
  23523679.50644 138256607.92744      3811.17244        37.900  

  20436830.43245 122035104.16155     -1570.51245        39.300  

  20753194.50605 123697607.75215      1859.91805        39.300  

  22217699.09104 131393637.84814     -3369.89104        38.400  

  22017962.61504 130344011.37814      -797.16004        38.700  

  22352657.33304 132102847.44614      3005.65204        38.300  

  19609514.96605 117687530.95415       381.77705        39.400  

  22322923.16204 131946590.17414     -2537.19104        38.200  

  24060455.93944 141077384.07044      2308.32044        38.100  

 06 10 29 01 45 23.0000000  0  9G10G26G21G22G 6G30G 1G17G16                     
  23522954.28804 138252796.94004      3810.60904        37.900  

  20437129.34945 122036674.85045     -1570.93045        39.100  

  20752840.61705 123695747.93815      1859.47305        39.000  

  22218340.40404 131397008.04914     -3370.26204        38.600  

  22018114.39704 130344808.97714      -797.78504        38.600  

  22352085.31504 132099841.56814      3005.66804        38.300  

  19609442.38605 117687149.53115       381.16805        39.700  

  22323405.99204 131949127.57614     -2537.63704        38.600  

  24060016.66904 141075075.70804      2308.19504        37.700  

 06 10 29 01 45 24.0000000  0  9G10G26G21G22G 6G30G 1G17G16                     
  23522229.11404 138248986.08414      3810.85504        37.800  

  20437428.32045 122038245.90845     -1571.27045        39.300  

  20752486.81605 123693888.69215      1859.02705        38.900  

  22218981.80404 131400378.58514     -3370.65204        38.700  

  22018266.32904 130345607.36414      -798.57404        38.400  

  22351513.31744 132096835.91454      3005.74644        38.300  

  19609369.94705 117686768.81215       380.27305        39.700  

  22323888.90904 131951665.47914     -2538.25004        38.500  

  24059577.50504 141072767.94314      2307.52704        37.900  

 06 10 29 01 45 25.0000000  0  9G10G26G21G22G 6G30G 1G17G16                     
  23521503.94004 138245175.36414      3810.86704        38.000  

  20437727.34945 122039817.38545     -1571.61745        39.300  

  20752133.10005 123692030.00815      1858.38305        39.000  

  22219623.23204 131403749.46914     -3371.10904        38.600  

  22018418.40304 130346406.53314      -799.52304        38.400  

  22350941.41044 132093830.52044      3005.25044        38.300  

  19609297.62505 117686388.81815       379.57805        39.500  

  22324371.95504 131954203.89814     -2539.08204        38.500  

  24059138.46304 141070460.74514      2306.65204        38.000  

 06 10 29 01 45 26.0000000  0  9G10G26G21G22G 6G30G 1G17G16                     
  23520778.80744 138241364.90954      3810.28144        37.800  

  20438026.46305 122041389.32805     -1572.30105        39.100  

  20751779.53205 123690171.95915      1857.84405        39.000  

  22220264.80144 131407120.80054     -3371.40244        38.500  

  22018570.62804 130347206.59814      -800.69504        38.600  

  22350369.58004 132090825.45704      3004.80904        38.500  

  19609225.45745 117686009.59055       379.04345        39.700  

  22324855.09404 131956742.91414     -2539.43804        38.300  

  24058699.52644 141068154.20454      2306.08644        37.900  

 06 10 29 01 45 27.0000000  0  9G10G26G21G22G 6G30G 1G17G16                     
  23520053.76644 138237554.71744      3810.04344        37.800  

  20438325.71505 122042961.80515     -1572.78505        39.400  

  20751426.08205 123688314.60515      1857.15605        39.200  

  22220906.44304 131410492.59504     -3371.97304        38.500  

  22018723.03504 130348007.54704      -801.37504        38.600  

  22349797.81644 132087820.75654      3004.37144        38.600  

  19609153.46945 117685631.23145       377.94945        39.300  

  22325338.37804 131959282.57014     -2539.82004        38.600  

  24058260.72744 141065848.37544      2305.35544        37.800  

 06 10 29 01 45 28.0000000  0  9G10G26G21G22G 6G30G 1G17G16                     
  23519328.78544 138233744.80144      3809.94544        37.800  

  20438625.02905 122044534.75015     -1573.15605        39.100  

  20751072.77105 123686457.93215      1856.17205        39.200  

  22221548.19304 131413864.84814     -3372.48404        38.500  

  22018875.61004 130348809.40504      -802.59804        38.600  

  22349226.08804 132084816.38104      3004.07404        38.600  

  19609081.63245 117685253.68045       377.00845        39.500  

  22325821.75304 131961822.85114     -2540.52304        38.600  

  24057822.08604 141063543.22404      2304.96504        37.900  

 06 10 29 01 45 29.0000000  0  9G10G26G21G22G 6G30G 1G17G16                     
  23518603.83544 138229934.96644      3809.59844        37.900  

  20438924.41105 122046108.05215     -1573.60505        39.300  

  20750719.54105 123684601.73615      1856.12105        39.100  

  22222189.98504 131417237.39114     -3372.49604        38.600  

  22019028.32804 130349611.99904      -803.06604        38.700  

  22348654.41644 132081812.21954      3004.11344        38.400  

  19609009.89445 117684876.77245       376.65245        39.600  

  22326305.23004 131964363.57514     -2540.82004        38.500  

  24057383.56304 141061238.59814      2304.43404        37.700  

 06 10 29 01 45 30.0000000  0  9G10G26G21G22G 6G30G 1G17G16                     
  23517878.85904 138226125.13404      3809.76604        38.100  

  20439223.85605 122047681.61715     -1573.77305        39.000  

  20750366.40705 123682745.97615      1855.76605        39.300  

  22222831.81304 131420610.15114     -3372.73004        38.600  

  22019181.19104 130350415.22604      -803.34404        38.600  

  22348082.76944 132078808.14244      3004.07044        38.300  

  19608938.29845 117684500.44545       375.91845        39.500  

  22326788.80304 131966904.72414     -2541.44504        38.500  

  24056945.07704 141058934.42114      2304.13304        37.700  

 06 10 29 01 45 31.0000000  0  9G10G26G21G22G 6G30G 1G17G16                     
  23517153.84504 138222315.25714      3809.77704        38.100  

  20439523.32005 122049255.33415     -1573.83205        39.200  

  20750013.32805 123680890.58015      1855.05505        39.000  

  22223473.66704 131423983.05614     -3373.00804        38.700  

  22019334.15204 130351219.06004      -804.15604        38.400  

  22347511.13144 132075804.10844      3003.88344        38.600  

  19608866.77145 117684124.61045       375.57445        39.700  

  22327272.43204 131969446.12414     -2541.41404        38.600  

  24056506.71604 141056630.61614      2303.30904        37.700  

 06 10 29 01 45 32.0000000  0  9G10G26G21G22G 6G30G 1G17G16                     
  23516428.88744 138218505.41554      3809.82844        38.000  

  20439822.84545 122050829.35855     -1574.45745        39.200  

  20749660.32345 123679035.61055      1854.69545        39.100  

  22224115.53844 131427356.19454     -3372.99644        38.600  

  22019487.24744 130352023.57044      -805.04744        38.700  

  22346939.50544 132072800.19044      3003.91444        38.600  

  19608795.38045 117683749.39245       374.86345        39.500  

  22327756.11744 131971987.95654     -2542.00844        38.100  

  24056068.39044 141054327.27254      2303.02044        37.900  

 06 10 29 01 45 33.0000000  0  9G10G26G21G22G 6G30G 1G17G16                     
  23515703.92104 138214695.64504      3809.47704        38.000  

  20440122.43905 122052403.67505     -1574.56605        39.200  

  20749307.41605 123677181.11505      1854.28105        39.300  

  22224757.50204 131430729.58804     -3373.38304        38.500  

  22019640.48604 130352828.77204      -805.45304        38.700  

  22346367.91844 132069796.42644      3003.75444        38.500  

  19608724.09545 117683374.77445       374.31345        39.600  

  22328239.90504 131974530.20504     -2542.37104        38.500  

  24055630.16704 141052024.39704      2302.72304        37.900  

 06 10 29 01 45 34.0000000  0  9G10G26G21G22G 6G30G 1G17G16                     
  23514978.97704 138210885.93414      3809.99604        37.900  

  20440422.07805 122053978.30915     -1574.85505        39.200  

  20748954.61845 123675327.13655      1853.75845        39.000  

  22225399.50404 131434103.27614     -3373.74604        38.600  

  22019793.83704 130353634.71914      -806.57004        38.800  

  22345796.36004 132066792.84704      3003.47304        38.500  

  19608652.94105 117683000.80605       373.61705        39.600  

  22328723.74904 131977072.91414     -2543.14504        38.300  

  24055192.02404 141049722.05614      2302.19104        37.900  

 06 10 29 01 45 35.0000000  0  9G10G26G21G22G 6G30G 1G17G16                     
  23514254.01804 138207076.36714      3809.39804        37.900  

  20440721.78305 122055553.32115     -1575.37105        39.200  

  20748601.93245 123673473.65245      1853.30945        39.200  

  22226041.56704 131437477.29014     -3374.34004        38.500  

  22019947.34104 130354441.37814      -806.93404        38.500  

  22345224.82604 132063789.46214      3003.10904        38.600  

  19608581.91205 117682627.52015       372.73405        39.500  

  22329207.69704 131979616.09214     -2543.64504        38.500  

  24054754.01704 141047420.24914      2301.51204        38.000  

 06 10 29 01 45 36.0000000  0  9G10G26G21G22G 6G30G 1G17G16                     
  23513529.09004 138203266.91814      3809.58204        38.100  

  20441021.54805 122057128.66015     -1575.67605        39.400  

  20748249.32605 123671620.73605      1852.68005        39.000  

  22226683.69104 131440851.59314     -3374.38304        38.700  

  22020101.00104 130355248.81614      -807.77704        38.600  

  22344653.33644 132060786.29254      3003.06344        38.600  

  19608511.03505 117682254.91515       372.24605        39.600  

  22329691.71904 131982159.72414     -2543.88704        38.600  

  24054316.10904 141045118.98114      2301.31604        37.900  

 06 10 29 01 45 37.0000000  0  9G10G26G21G22G 6G30G 1G17G16                     
  23512804.18104 138199457.51014      3809.48804        38.000  

  20441321.40205 122058704.32315     -1575.86305        39.100  

  20747896.81505 123669768.25215      1852.43405        39.100  

  22227325.83304 131444226.18614     -3374.98404        38.300  

  22020254.76604 130356056.95914      -808.49204        38.600  

  22344081.88504 132057783.27404      3003.01604        38.300  

  19608440.24305 117681882.91815       371.68405        39.500  

  22330175.83304 131984703.82414     -2544.39804        38.300  

  24053878.28104 141042818.22514      2300.49604        37.900  

 06 10 29 01 45 38.0000000  0  9G10G26G21G22G 6G30G 1G17G16                     
  23512079.30144 138195648.32654      3809.15644        38.300  

  20441621.32945 122060280.43655     -1576.53545        39.200  

  20747544.43045 123667916.41755      1851.56645        39.000  

  22227968.04344 131447601.14754     -3375.28144        38.500  

  22020408.70844 130356865.95354      -809.46144        38.500  

  22343510.48344 132054780.53354      3002.86744        38.400  

  19608369.60545 117681511.68155       370.85945        39.700  

  22330660.06744 131987248.46354     -2544.89544        38.500  

  24053440.57644 141040518.08854      2299.76644        37.900  

 06 10 29 01 45 39.0000000  0  9G10G26G21G22G 6G30G 1G17G16                     
  23511354.47104 138191839.40404      3808.79304        38.000  

  20441921.34205 122061857.03805     -1576.73405        39.300  

  20747192.16105 123666065.22605      1851.25405        39.000  

  22228610.35944 131450976.58444     -3375.54344        38.500  

  22020562.82204 130357675.85104      -810.35204        38.500  

  22342939.12804 132051778.19004      3002.16404        38.300  

  19608299.11805 117681141.28105       370.12105        39.600  

  22331144.41904 131989793.74204     -2545.47704        38.400  

  24053003.00104 141038218.64204      2299.31604        38.000  

 06 10 29 01 45 40.0000000  0  9G10G26G21G22G 6G30G 1G17G16                     
  23510629.65844 138188030.63454      3808.62944        38.200  

  20442221.42845 122063434.03555     -1577.10545        39.300  

  20746839.99845 123664214.61155      1850.57045        39.300  

  22229252.72304 131454352.36704     -3376.10504        38.600  

  22020717.08104 130358486.50414      -810.82804        38.300  

  22342367.81804 132048776.05914      3002.09804        38.500  

  19608228.76405 117680771.57415       369.34805        39.600  

  22331628.87604 131992339.52714     -2545.93804        38.600  

  24052565.55444 141035919.77354      2298.56344        37.700  

 06 10 29 01 45 41.0000000  0  9G10G26G21G22G 6G30G 1G17G16                     
  23509904.89744 138184222.03944      3808.44544        38.200  

  20442521.60645 122065011.45645     -1577.68045        39.000  

  20746487.93645 123662364.57245      1850.00445        39.000  

  22229895.19104 131457728.50514     -3376.08604        38.200  

  22020871.50104 130359298.00314      -811.87904        38.600  

  22341796.55204 132045774.18914      3001.83204        38.400  

  19608158.53605 117680402.61715       368.68805        39.500  

  22332113.43944 131994885.86654     -2546.78544        38.400  

  24052128.20504 141033621.49504      2297.90604        37.800  

 06 10 29 01 45 42.0000000  0  9G10G26G21G22G 6G30G 1G17G16                     
  23509180.17604 138180413.62004      3808.14104        37.900  

  20442821.85745 122066589.27845     -1578.07845        39.000  

  20746135.99045 123660515.13545      1849.10945        38.900  

  22230537.71044 131461105.04654     -3376.63344        38.400  

  22021026.07804 130360110.30814      -812.65604        38.400  

  22341225.33904 132042772.59014      3001.41004        38.300  

  19608088.48805 117680034.40015       367.77305        39.600  

  22332598.08144 131997432.72344     -2547.19544        38.600  

  24051690.98204 141031323.85214      2297.33604        37.900  

 06 10 29 01 45 43.0000000  0  9G10G26G21G22G 6G30G 1G17G16                     
  23508455.48404 138176605.34214      3808.30104        37.900  

  20443122.20405 122068167.49405     -1578.27005        39.300  

  20745784.14245 123658666.24545      1848.72745        39.100  

  22231180.35104 131464481.91404     -3376.89104        38.600  

  22021180.78704 130360923.40514      -813.57004        38.500  

  22340654.21144 132039771.21254      3001.43444        38.600  

  19608018.54605 117679666.87815       367.16805        39.400  

  22333082.83904 131999980.09704     -2548.00004        38.200  

  24051253.85604 141029026.75314      2296.91004        37.700  

 06 10 29 01 45 44.0000000  0  9G10G26G21G22G 6G30G 1G17G16                     
  23507730.85204 138172797.16414      3808.16004        38.000  

  20443422.61045 122069746.05355     -1578.62945        39.200  

  20745432.39045 123656817.86845      1848.28545        39.000  

  22231823.00904 131467859.08414     -3377.48004        38.600  

  22021335.65504 130361737.20214      -813.95704        38.400  

  22340083.09904 132036770.04004      3000.99204        38.600  

  19607948.73745 117679299.99555       366.64545        39.600  

  22333567.69144 132002527.91454     -2548.13344        38.100  

  24050816.85904 141026730.19514      2296.05504        37.700  

 06 10 29 01 45 45.0000000  0  9G10G26G21G22G 6G30G 1G17G16                     
  23507006.19444 138168989.02454      3808.29744        38.100  

  20443723.07245 122071324.87745     -1579.03945        39.400  

  20745080.72105 123654969.92105      1847.93805        39.000  

  22232465.72804 131471236.47714     -3377.59804        38.700  

  22021490.65604 130362551.69914      -814.68404        38.400  

  22339512.00144 132033768.95754      3001.26244        38.400  

  19607879.02405 117678933.72105       366.10505        39.600  

  22334052.61144 132005076.13644     -2548.53144        38.300  

  24050379.92104 141024434.07614      2295.91004        37.600  

 06 10 29 01 45 46.0000000  0  9G10G26G21G22G 6G30G 1G17G16                     
  23506281.51804 138165180.87004      3808.15204        38.000  

  20444023.53445 122072903.91645     -1579.16845        39.100  

  20744729.15945 123653122.40255      1847.28145        39.300  

  22233108.46804 131474614.05514     -3377.68404        38.300  

  22021645.76004 130363366.82914      -815.53104        38.600  

