     2.10           OBSERVATION DATA    G (GPS)             RINEX VERSION / TYPE
Convert                                 12-Aug-2008 17:04   PGM / RUN BY / DATE 
Signal Strength values S1,S2 are in dBHz                    COMMENT             
                                                            MARKER NAME         
                                                            MARKER NUMBER       
                                                            OBSERVER / AGENCY   
SVA05050095         NOV RT2             2.210               REC # / TYPE / VERS 
                                                            ANT # / TYPE        
  3991022.2489   563011.3766  4926991.6625                  APPROX POSITION XYZ 
        0.0000        0.0000        0.0000                  ANTENNA: DELTA H/E/N
     1     1                                                WAVELENGTH FACT L1/2
     1     1     7   G01   G06   G10   G16   G17   G21   G22WAVELENGTH FACT L1/2
     1     1     2   G26   G30                              WAVELENGTH FACT L1/2
                                                            COMMENT             
                                                            COMMENT             
                                                            COMMENT             
                                                            COMMENT             
                                                            COMMENT             
     8    C1    L1    D1    S1    P2    L2    D2    S2      # / TYPES OF OBSERV 
     1.000                                                  INTERVAL            
  2006    10    29    01    44    30.0000000    GPS         TIME OF FIRST OBS   
  2006    10    29    01    56     1.0000000    GPS         TIME OF LAST OBS    
    14                                                      LEAP SECONDS        
                                                            END OF HEADER       
 06 10 29 01 44 30.0000000  0  9G 1G21G 6G17G30G22G10G26G16                     
  19613476.40405 103538943.70215       416.85505        39.500  

  20771742.62005 109625672.39415      1887.31305        39.100  

  22010261.97504 116134131.90914      -758.01604        38.600  

  22297954.41204 117645970.77014     -2512.17204        38.600  

  22382463.07204 118090063.58514      3016.42604        38.500  

  22184442.75204 117049459.01314     -3353.45704        38.300  

  23561429.03204 124285567.86714      3817.01604        38.000  

  20421385.23605 107784535.92315     -1551.53905        39.400  

  24083434.34304 127028735.98214      2336.82404        37.700  

 06 10 29 01 44 31.0000000  0  9G 1G21G 6G17G30G22G10G26G16                     
  19613397.13505 103538527.14315       416.28505        39.700  

  20771383.54605 109623785.41115      1887.03105        39.100  

  22010406.27504 116134890.18214      -758.62104        38.600  

  22298432.47304 117648483.04214     -2512.68804        38.300  

  22381889.06004 118087047.08714      3016.53104        38.300  

  22185080.98504 117052812.71714     -3353.68404        38.400  

  23560702.69204 124281751.05914      3816.86304        38.000  

  20421680.59405 107786088.03015     -1552.16405        39.200  

  24082989.76904 127026399.58114      2336.21904        37.800  

 06 10 29 01 44 32.0000000  0  9G 1G21G 6G17G30G22G10G26G16                     
  19613317.98905 103538111.22515       415.55505        39.600  

  20771024.63205 109621898.91115      1886.23805        39.000  

  22010550.70144 116135649.18054      -759.24644        38.400  

  22298910.64404 117650995.75214     -2512.94904        38.300  

  22381315.07104 118084030.75514      3016.41004        38.200  

  22185719.21304 117056166.71214     -3354.04304        38.400  

  23559976.36804 124277934.28414      3816.78504        38.000  

  20421975.99305 107787640.44515     -1552.65205        39.100  

  24082545.25404 127024063.68114      2335.74204        37.700  

 06 10 29 01 44 33.0000000  0  9G 1G21G 6G17G30G22G10G26G16                     
  19613238.95705 103537695.88615       415.04705        39.700  

  20770665.75604 109620012.83914      1885.86304        38.800  

  22010695.27504 116136408.86304      -760.12904        38.700  

  22299388.87904 117653508.87814     -2513.45304        38.300  

  22380741.11904 118081014.54414      3016.21904        38.500  

  22186357.54404 117059520.93314     -3354.45704        38.400  

  23559250.12004 124274117.55314      3816.64504        37.900  

  20422271.47205 107789193.12315     -1552.91005        39.100  

  24082100.78604 127021728.24814      2335.06604        37.800  

 06 10 29 01 44 34.0000000  0  9G 1G21G 6G17G30G22G10G26G16                     
  19613160.04605 103537281.18915       414.27305        39.800  

  20770306.92705 109618127.23615      1885.39505        39.100  

  22010839.96104 116137169.24614      -760.82804        38.400  

  22299867.13704 117656022.43514     -2513.77704        38.600  

  22380167.14104 118077998.49914      3016.30904        38.200  

  22186995.85104 117062875.44514     -3354.69904        38.400  

  23558523.83204 124270300.90214      3816.54704        38.100  

  20422567.01405 107790746.13215     -1553.08205        39.100  

  24081656.43344 127019393.28554      2334.45344        37.800  

 06 10 29 01 44 35.0000000  0  9G 1G21G 6G17G30G22G10G26G16                     
  19613081.26905 103536867.22415       413.55905        39.600  

  20769948.21105 109616242.20815      1884.78905        39.200  

  22010984.79804 116137930.45114      -761.73404        38.400  

  22300345.56104 117658536.53514     -2514.30904        38.500  

  22379593.27504 118074982.72714      3015.48404        38.500  

  22187634.30204 117066230.31214     -3355.10204        38.600  

  23557797.57904 124266484.40414      3816.13304        37.900  

  20422862.60505 107792299.52915     -1553.76605        39.300  

  24081212.25104 127017058.90504      2333.90604        37.700  

 06 10 29 01 44 36.0000000  0  9G 1G21G 6G17G30G22G10G26G16                     
  19613002.62305 103536453.94115       412.97305        39.600  

  20769589.60005 109614357.73815      1884.40205        38.900  

  22011129.80204 116138692.41114      -762.40204        38.700  

  22300824.05804 117661051.13314     -2514.84004        38.400  

  22379019.42404 118071967.15414      3015.43404        38.500  

  22188272.79304 117069585.50814     -3355.28904        38.400  

  23557071.32304 124262668.01814      3816.30104        38.000  

  20423158.23405 107793853.32215     -1554.06605        39.100  

  24080768.17904 127014725.10014      2333.44504        38.000  

 06 10 29 01 44 37.0000000  0  9G 1G21G 6G17G30G22G10G26G16                     
  19612924.08305 103536041.38715       412.20305        39.300  

  20769231.10505 109612473.81215      1883.60505        39.200  

  22011274.99604 116139455.18914      -763.13704        38.400  

  22301302.69304 117663566.27114     -2515.15204        38.300  

  22378445.64304 118068951.82914      3015.25804        38.300  

  22188911.26804 117072941.08714     -3355.60204        38.400  

  23556345.12504 124258851.81114      3816.08204        38.000  

  20423453.95305 107795407.48315     -1554.05905        39.300  

  24080324.22504 127012391.86614      2333.14804        37.800  

 06 10 29 01 44 38.0000000  0  9G 1G21G 6G17G30G22G10G26G16                     
  19612845.67705 103535629.35215       411.93405        39.400  

  20768872.63005 109610590.26315      1883.56305        39.000  

  22011420.26204 116140218.56614      -763.65604        38.600  

  22301781.36704 117666081.76114     -2515.71104        38.500  

  22377871.87604 118065936.56314      3015.44104        38.500  

  22189549.86404 117076296.80714     -3355.37104        38.500  

  23555618.80444 124255035.54554      3816.37544        38.000  

  20423749.73345 107796961.88955     -1554.12545        39.300  

  24079880.27204 127010059.04014      2332.79704        37.800  

 06 10 29 01 44 39.0000000  0  9G 1G21G 6G17G30G22G10G26G16                     
  19612767.39505 103535218.06315       410.80505        39.700  

  20768514.31305 109608707.32315      1882.48005        39.100  

  22011565.68504 116140982.75014      -764.62504        38.400  

  22302260.20504 117668597.76714     -2516.46904        38.300  

  22377298.15404 118062921.55614      3014.99204        38.500  

  22190188.49704 117079652.93214     -3356.02704        38.600  

  23554892.61944 124251219.47444      3815.84844        37.800  

  20424045.62845 107798516.72845     -1555.34845        39.100  

  24079436.43804 127007726.79614      2331.92604        37.800  

 06 10 29 01 44 40.0000000  0  9G 1G21G 6G17G30G22G10G26G16                     
  19612689.30805 103534807.64615       410.12505        39.700  

  20768156.14705 109606825.09015      1881.82405        39.100  

  22011711.32504 116141747.92714      -765.72704        38.600  

  22302739.10004 117671114.46114     -2516.71104        38.500  

  22376724.53904 118059906.97214      3014.32004        38.400  

  22190827.20804 117083009.58014     -3356.76204        38.400  

  23554166.47344 124247403.68144      3815.46944        38.200  

  20424341.56845 107800072.09445     -1555.64145        39.300  

  24078992.78504 127005395.28414      2331.18804        37.900  

 06 10 29 01 44 41.0000000  0  9G 1G21G 6G17G30G22G10G26G16                     
  19612611.33805 103534398.03415       409.26205        39.600  

  20767798.11505 109604943.47915      1881.33605        38.900  

  22011857.08244 116142513.96654      -766.69544        38.500  

  22303218.12504 117673631.77114     -2517.62904        38.500  

  22376150.94204 118056892.68714      3014.23804        38.500  

  22191465.98704 117086366.66614     -3357.43804        38.500  

  23553440.37944 124243588.15444      3815.43444        38.000  

  20424637.63945 107801627.94945     -1556.11345        39.100  

  24078549.23704 127003064.43814      2330.50804        37.900  

 06 10 29 01 44 42.0000000  0  9G 1G21G 6G17G30G22G10G26G16                     
  19612533.51545 103533989.18255       408.52045        39.400  

  20767440.17705 109603062.50015      1880.44505        39.100  

  22012003.02404 116143280.83304      -767.27304        38.500  

  22303697.30604 117676149.66714     -2518.25804        38.300  

  22375577.40704 118053878.72414      3013.91804        38.200  

  22192104.94104 117089724.17914     -3357.95704        38.400  

  23552714.36744 124239772.80344      3815.41444        38.000  

  20424933.81805 107803184.25605     -1556.70305        39.200  

  24078105.79704 127000734.23914      2329.70704        37.900  

 06 10 29 01 44 43.0000000  0  9G 1G21G 6G17G30G22G10G26G16                     
  19612455.84645 103533581.07445       407.58645        39.600  

  20767082.37705 109601182.10815      1880.11705        39.200  

  22012149.07244 116144048.52154      -768.02344        38.600  

  22304176.56504 117678668.09414     -2518.73004        38.400  

  22375003.92344 118050865.02354      3013.29344        38.600  

  22192743.88404 117093082.02514     -3358.08604        38.400  

  23551988.36144 124235957.62544      3815.12944        37.900  

  20425230.04505 107804740.96915     -1556.82005        39.100  

  24077662.43604 126998404.61214      2329.25004        37.800  

 06 10 29 01 44 44.0000000  0  9G 1G21G 6G17G30G22G10G26G16                     
  19612378.34345 103533173.63545       407.09445        39.700  

  20766724.63605 109599302.20915      1879.74205        38.900  

  22012295.32804 116144816.98104      -768.94504        38.500  

  22304655.91744 117681186.99254     -2518.91044        38.300  

  22374430.41944 118047851.48244      3013.49244        38.500  

  22193382.90904 117096440.18714     -3358.25404        38.400  

  23551262.37544 124232142.57544      3814.98444        38.100  

  20425526.32205 107806298.03915     -1557.07805        39.300  

  24077219.22704 126996075.51614      2328.93804        38.000  

 06 10 29 01 44 45.0000000  0  9G 1G21G 6G17G30G22G10G26G16                     
  19612300.88845 103532766.69945       406.54345        39.600  

  20766366.98905 109597422.69815      1879.00805        38.900  

  22012441.67004 116145586.02514      -769.50404        38.400  

  22305135.31444 117683706.25144     -2519.45344        38.500  

  22373857.00644 118044838.02744      3013.31344        38.500  

  22194021.96704 117099798.53514     -3358.52704        38.800  

  23550536.39904 124228327.45804      3815.00004        38.000  

  20425822.69105 107807855.32115     -1557.29705        39.300  

  24076776.11604 126993746.82314      2328.34404        37.800  

 06 10 29 01 44 46.0000000  0  9G 1G21G 6G17G30G22G10G26G16                     
  19612223.54545 103532360.36845       406.26645        39.600  

  20766009.39505 109595543.62215      1878.77705        39.200  

  22012588.09804 116146355.74714      -769.98404        38.700  

  22305614.80544 117686225.88644     -2519.51644        38.500  

  22373283.62504 118041824.66904      3013.50404        38.400  

  22194661.09904 117103157.11314     -3358.64104        38.400  

  23549810.47604 124224512.37614      3815.23004        38.200  

  20426119.08105 107809412.87415     -1557.65205        39.200  

  24076333.06544 126991418.58254      2328.36344        37.800  

 06 10 29 01 44 47.0000000  0  9G 1G21G 6G17G30G22G10G26G16                     
  19612146.33345 103531954.57645       405.46945        39.600  

  20765651.89445 109593664.93055      1878.35245        39.000  

  22012734.67504 116147126.08714      -770.88704        38.500  

  22306094.33344 117688745.86844     -2520.26244        38.500  

  22372710.20704 118038811.39914      3012.98804        38.300  

  22195300.22904 117106515.85614     -3358.75804        38.500  

  23549084.47804 124220697.24614      3815.13704        38.000  

  20426415.51405 107810970.64915     -1558.09005        39.100  

  24075890.10844 126989090.73344      2327.63344        37.700  

 06 10 29 01 44 48.0000000  0  9G 1G21G 6G17G30G22G10G26G16                     
  19612069.22005 103531549.34505       404.91005        39.400  

  20765294.46705 109591786.64705      1878.02705        39.000  

  22012881.38704 116147897.05314      -770.96104        38.600  

  22306573.97244 117691266.24444     -2520.44944        38.400  

  22372136.84704 118035798.19714      3013.23804        38.100  

  22195939.43304 117109874.83014     -3359.13304        38.600  

  23548358.49604 124216882.15414      3815.13704        38.000  

  20426712.01645 107812528.68055     -1558.37545        39.000  

  24075447.23244 126986763.33644      2327.11344        37.900  

 06 10 29 01 44 49.0000000  0  9G 1G21G 6G17G30G22G10G26G16                     
  19611992.25005 103531144.81215       404.28105        39.500  

  20764937.13705 109589908.90715      1877.58205        39.000  

  22013028.23804 116148668.83714      -772.26204        38.600  

  22307053.70004 117693787.12304     -2521.33204        38.200  

  22371563.46904 118032785.24414      3012.83604        38.400  

  22196578.67304 117113234.14714     -3359.59404        38.400  

  23547632.48504 124213067.17714      3814.68004        38.200  

  20427008.49005 107814087.06205     -1558.49605        39.000  

  24075004.40004 126984436.48404      2326.75404        37.900  

 06 10 29 01 44 50.0000000  0  9G 1G21G 6G17G30G22G10G26G16                     
  19611915.41705 103530741.00215       403.56605        39.500  

  20764579.92745 109588031.73655      1876.96545        39.100  

  22013175.26804 116149441.39814      -772.95704        38.500  

  22307533.51644 117696308.50454     -2521.33244        38.200  

  22370990.17304 118029772.52014      3012.70304        38.300  

  22197217.93204 117116593.78314     -3359.71104        38.400  

  23546906.53504 124209252.34014      3814.82804        38.100  

  20427305.12505 107815645.87415     -1558.83205        39.300  

  24074561.73504 126982110.21914      2326.01204        37.600  

 06 10 29 01 44 51.0000000  0  9G 1G21G 6G17G30G22G10G26G16                     
  19611838.71105 103530337.86815       403.11705        39.600  

  20764222.81445 109586155.10245      1876.41845        39.000  

  22013322.41404 116150214.73514      -773.93004        38.600  

  22308013.40504 117698830.39604     -2522.01204        38.400  

  22370416.92844 118026760.03854      3012.28144        38.400  

  22197857.37504 117119953.79214     -3360.13704        38.500  

  23546180.63204 124205437.64314      3814.64504        37.900  

  20427601.82305 107817205.02915     -1559.14505        39.300  

  24074119.18804 126979784.50514      2325.39804        37.700  

 06 10 29 01 44 52.0000000  0  9G 1G21G 6G17G30G22G10G26G16                     
  19611762.15005 103529935.52915       401.93405        39.600  

  20763865.82045 109584279.07445      1875.60545        38.900  

  22013469.73204 116150988.90014      -774.51204        38.500  

  22308493.40104 117701352.86914     -2522.73404        38.500  

  22369843.69904 118023747.83204      3011.91004        38.300  

  22198496.83604 117123314.20114     -3360.67204        38.300  

  23545454.74404 124201623.13914      3814.51604        38.100  

  20427898.63345 107818764.66255     -1559.94545        39.200  

  24073676.73004 126977459.42014      2324.69104        37.700  

 06 10 29 01 44 53.0000000  0  9G 1G21G 6G17G30G22G10G26G16                     
  19611685.72005 103529533.92815       401.27005        39.700  

  20763508.94845 109582403.66445      1875.17645        39.100  

  22013617.21404 116151763.90714      -775.18004        38.600  

  22308973.49504 117703875.91514     -2523.32004        38.500  

  22369270.54604 118020735.91214      3011.83604        38.200  

  22199136.34744 117126675.00054     -3360.95744        38.300  

  23544728.90304 124197808.85114      3814.16404        38.100  

  20428195.51005 107820324.74405     -1560.52305        39.200  

  24073234.40804 126975134.94914      2324.07404        38.000  

 06 10 29 01 44 54.0000000  0  9G 1G21G 6G17G30G22G10G26G16                     
  19611609.41705 103529133.04015       400.59405        39.600  

  20763152.17404 109580528.78204      1874.41004        38.800  

  22013764.83704 116152539.71314      -776.23004        38.700  

  22309453.72204 117706399.44014     -2523.79704        38.400  

  22368697.40104 118017724.23414      3011.42204        38.400  

  22199775.95544 117130036.12444     -3361.05944        38.500  

  23544003.11404 124193994.68414      3813.98404        38.000  

  20428492.45305 107821885.16215     -1560.57405        39.300  

  24072792.16404 126972811.02814      2323.61704        37.700  

 06 10 29 01 44 55.0000000  0  9G 1G21G 6G17G30G22G10G26G16                     
  19611533.25905 103528732.83815       399.76205        39.600  

  20762795.48505 109578654.46415      1873.89505        39.000  

  22013912.62504 116153316.31214      -776.96504        38.600  

  22309934.02304 117708923.50114     -2524.12904        38.600  

  22368124.34804 118014712.77914      3011.24204        38.200  

  22200415.62544 117133397.63144     -3361.68044        38.700  

  23543277.30104 124190180.65514      3814.19904        37.800  

  20428789.42005 107823445.99215     -1561.00405        39.100  

  24072350.02504 126970487.71314      2323.12504        37.900  

 06 10 29 01 44 56.0000000  0  9G 1G21G 6G17G30G22G10G26G16                     
  19611457.22405 103528333.31415       399.31605        39.400  

  20762438.90205 109576780.65815      1873.36305        39.100  

  22014060.55204 116154093.63814      -777.80504        38.300  

  22310414.42404 117711448.02714     -2524.66004        38.300  

  22367551.28104 118011701.50714      3011.30504        38.300  

  22201055.36444 117136759.41844     -3361.88744        38.400  

  23542551.54204 124186366.74114      3813.78504        37.900  

  20429086.49805 107825007.17415     -1561.47705        39.300  

  24071908.03504 126968164.90414      2322.77704        37.800  

 06 10 29 01 44 57.0000000  0  9G 1G21G 6G17G30G22G10G26G16                     
  19611381.30005 103527934.49515       398.64805        39.500  

  20762082.41305 109574907.40815      1873.06305        39.000  

  22014208.63804 116154871.74914      -778.47304        38.500  

  22310894.95104 117713973.05914     -2525.21504        38.300  

  22366978.28304 118008690.47314      3011.10204        38.600  

  22201695.17404 117140121.57204     -3362.24604        38.500  

  23541825.79704 124182552.96014      3813.82804        38.100  

  20429383.66205 107826568.72715     -1561.44905        39.200  

  24071466.12304 126965842.70014      2321.92604        37.700  

 06 10 29 01 44 58.0000000  0  9G 1G21G 6G17G30G22G10G26G16                     
  19611305.58005 103527536.40115       397.54305        39.600  

  20761726.05205 109573034.71915      1872.52705        39.100  

  22014356.86004 116155650.65914      -779.30104        38.400  

  22311375.53504 117716498.64414     -2525.81304        38.200  

  22366405.33704 118005679.71814      3010.55104        38.500  

  22202334.99804 117143484.07614     -3362.62504        38.400  

  23541100.09404 124178739.33914      3813.41404        38.100  

  20429680.88105 107828130.71015     -1562.25405        39.300  

  24071024.34404 126963521.01614      2321.69504        37.800  

 06 10 29 01 44 59.0000000  0  9G 1G21G 6G17G30G22G10G26G16                     
  19611229.98005 103527139.02615       397.24205        39.600  

  20761369.80845 109571162.63655      1871.77045        39.200  

  22014505.23204 116156430.40714      -780.29304        38.700  

  22311856.23004 117719024.77114     -2526.50004        38.600  

  22365832.43404 118002669.20114      3010.39104        38.500  

  22202974.92844 117146846.96654     -3362.92244        38.300  

  23540374.39604 124174925.89014      3813.11304        38.100  

  20429978.23505 107829693.08715     -1562.42205        39.200  

  24070582.68904 126961200.00014      2320.68404        38.100  

 06 10 29 01 45  0.0000000  0  9G 1G21G 6G17G30G22G10G26G16                     
  19611154.50705 103526742.38115       396.09805        39.700  

  20761013.65705 109569291.07405      1871.21505        38.900  

  22014653.75604 116157210.90114      -780.66404        38.600  

  22312337.00304 117721551.38314     -2526.82004        38.500  

  22365259.60644 117999658.92754      3010.16044        38.300  

  22203614.92504 117150210.20204     -3363.59804        38.500  

  23539648.75204 124171112.57614      3813.11304        38.100  

  20430275.61405 107831255.86315     -1563.14505        39.300  

  24070141.11504 126958879.51114      2320.20304        37.900  

 06 10 29 01 45  1.0000000  0  9G 1G21G 6G17G30G22G10G26G16                     
  19611079.14405 103526346.35815       395.71905        39.700  

  20760657.57405 109567420.02315      1870.94505        39.300  

  22014802.40804 116157992.16814      -781.67604        38.600  

  22312817.90504 117724078.47114     -2527.26204        38.500  

  22364686.76804 117996648.82704      3009.93804        38.600  

  22204254.94704 117153573.72714     -3363.69904        38.800  

  23538923.11804 124167299.34614      3813.21904        38.000  

  20430573.05605 107832818.96615     -1563.34405        39.200  

  24069699.59304 126956559.54914      2319.59404        37.900  

 06 10 29 01 45  2.0000000  0  9G 1G21G 6G17G30G22G10G26G16                     
  19611003.87145 103525950.85455       395.19945        39.500  

  20760301.62205 109565549.33015      1870.47305        39.300  

  22014951.19104 116158773.98314      -781.87104        38.500  

  22313298.86104 117726605.87014     -2527.53504        38.300  

  22364113.96204 117993638.73914      3010.28104        38.600  

  22204895.03704 117156937.37214     -3363.72304        38.400  

  23538197.47604 124163486.06814      3813.24604        38.000  

  20430870.57945 107834382.26355     -1563.23045        39.000  

  24069258.16904 126954239.95414      2319.64804        37.900  

 06 10 29 01 45  3.0000000  0  9G 1G21G 6G17G30G22G10G26G16                     
  19610928.70105 103525555.90105       394.47705        39.700  

  20759945.67805 109563679.01815      1870.09805        39.200  

  22015100.07904 116159556.45114      -782.85904        38.700  

  22313779.88304 117729133.62214     -2528.16804        38.600  

  22363541.19904 117990628.74614      3009.85904        38.500  

  22205535.12604 117160301.23514     -3364.09404        38.400  

  23537471.82204 124159672.78114      3813.07804        38.000  

  20431168.12545 107835945.76545     -1563.57845        39.300  

  24068816.84604 126951920.77814      2318.85204        37.800  

 06 10 29 01 45  4.0000000  0  9G 1G21G 6G17G30G22G10G26G16                     
  19610853.71505 103525161.72315       393.94505        39.600  

  20759589.89705 109561809.36615      1869.16805        39.000  

  22015249.17704 116160339.78514      -783.58204        38.600  

  22314261.02704 117731661.96214     -2528.58604        38.400  

  22362968.50144 117987619.09754      3009.52744        38.500  

  22206175.31904 117163665.52714     -3364.50004        38.500  

  23536746.22504 124155859.71014      3812.89104        37.700  

  20431465.78945 107837509.78145     -1564.37145        39.000  

  24068375.66504 126949602.25514      2318.15204        37.900  

 06 10 29 01 45  5.0000000  0  9G 1G21G 6G17G30G22G10G26G16                     
  19610778.86205 103524768.39615       392.78505        39.700  

  20759234.24204 109559940.39214      1868.49604        38.800  

  22015398.40404 116161124.02714      -784.72304        38.600  

  22314742.29004 117734190.94114     -2529.30904        38.600  

  22362395.83944 117984609.78844      3009.06644        38.700  

  22206815.56204 117167030.27514     -3364.91004        38.500  

  23536020.70104 124152046.91514      3812.32804        38.100  

  20431763.49645 107839074.26645     -1564.73845        39.300  

  24067934.61404 126947284.42314      2317.41004        37.800  

 06 10 29 01 45  6.0000000  0  9G 1G21G 6G17G30G22G10G26G16                     
  19610704.14205 103524375.76015       392.35205        39.600  

  20758878.68145 109558071.95655      1868.05945        38.900  

  22015547.77204 116161909.04614      -785.24204        38.400  

  22315223.64604 117736720.44314     -2529.46104        38.700  

  22361823.28444 117981600.71844      3008.92244        38.400  

  22207455.91904 117170395.40714     -3365.56604        38.300  

  23535295.19944 124148234.26354      3812.67644        38.000  

  20432061.30205 107840639.16505     -1564.94505        39.100  

  24067493.63904 126944967.15814      2317.06604        37.700  

 06 10 29 01 45  7.0000000  0  9G 1G21G 6G17G30G22G10G26G16                     
  19610629.54205 103523983.72815       391.72305        39.600  

  20758523.22245 109556203.95345      1868.02045        39.000  

  22015697.27404 116162694.74814      -785.94504        38.500  

  22315705.07104 117739250.33014     -2529.90204        38.600  

  22361250.72644 117978591.75444      3008.96544        38.700  

  22208096.32104 117173760.75114     -3365.59804        38.400  

  23534569.66304 124144421.61404      3812.64504        37.900  

  20432359.13145 107842204.33155     -1565.55545        39.200  

  24067052.74544 126942650.36254      2316.54744        37.800  

 06 10 29 01 45  8.0000000  0  9G 1G21G 6G17G30G22G10G26G16                     
  19610555.05805 103523592.29415       391.06305        39.500  

  20758167.84145 109554336.42045      1867.39545        39.000  

  22015846.90504 116163481.13814      -786.51604        38.400  

  22316186.57004 117741780.65614     -2530.48804        38.500  

  22360678.16144 117975582.94544      3008.50444        38.300  

  22208736.74804 117177126.31314     -3365.63304        38.500  

  23533844.11604 124140609.04714      3812.37504        38.100  

  20432657.03245 107843769.78045     -1565.39545        39.100  

  24066611.97604 126940334.03004      2315.90204        37.900  

 06 10 29 01 45  9.0000000  0  9G 1G21G 6G17G30G22G10G26G16                     
  19610480.68145 103523201.52955       390.30145        39.800  

  20757812.59505 109552469.39705      1866.91405        38.900  

  22015996.68404 116164268.25514      -787.50004        38.600  

  22316668.16804 117744311.44114     -2531.26604        38.400  

  22360105.63944 117972574.31144      3008.52044        38.500  

  22209377.21704 117180492.20314     -3365.96504        38.500  

  23533118.63344 124136796.55954      3812.25044        38.100  

  20432955.00005 107845335.58405     -1565.78505        39.300  

  24066171.26444 126938018.23554      2315.47744        37.900  

 06 10 29 01 45 10.0000000  0  9G 1G21G 6G17G30G22G10G26G16                     
  19610406.45105 103522811.48105       389.86705        39.500  

  20757457.40905 109550602.94815      1866.22305        39.000  

  22016146.63304 116165056.20314      -788.16004        38.700  

  22317149.85904 117746842.73914     -2531.56304        38.400  

  22359533.18804 117969565.93204      3008.46904        38.600  

  22210017.79444 117183858.46454     -3366.24644        38.700  

  23532393.17544 124132984.25844      3812.37144        37.900  

  20433253.04605 107846901.80015     -1566.48805        39.000  

  24065730.67144 126935703.01444      2315.09044        37.800  

 06 10 29 01 45 11.0000000  0  9G 1G21G 6G17G30G22G10G26G16                     
  19610332.37405 103522422.08015       389.00805        39.600  

  20757102.34745 109548736.98555      1865.87945        39.300  

  22016296.72644 116165844.86854      -789.06344        38.500  

  22317631.66904 117749374.50314     -2532.19904        38.600  

  22358960.76244 117966557.74154      3008.07044        38.200  

  22210658.38204 117187224.99004     -3366.46904        38.700  

  23531667.73244 124129172.01944      3812.07044        38.000  

  20433551.10505 107848468.30815     -1566.66805        39.200  

  24065290.19044 126933388.30944      2314.39144        37.800  

 06 10 29 01 45 12.0000000  0  9G 1G21G 6G17G30G22G10G26G16                     
  19610258.37405 103522033.28715       388.64805        39.300  

  20756747.34405 109546871.48705      1865.32405        39.000  

  22016446.93144 116166634.20544      -789.63744        38.500  

  22318113.52304 117751906.67914     -2532.30504        38.500  

  22358388.34704 117963549.67704      3007.95704        38.100  

  22211299.05404 117190591.79214     -3366.91804        38.200  

  23530942.28544 124125359.83144      3812.02344        38.200  

  20433849.26705 107850035.15015     -1566.80905        39.200  

  24064849.79944 126931074.08744      2314.08244        37.800  

 06 10 29 01 45 13.0000000  0  9G 1G21G 6G17G30G22G10G26G16                     
  19610184.53405 103521645.19215       387.82805        39.700  

  20756392.43305 109545006.52915      1865.04305        39.100  

  22016597.29444 116167424.33344      -790.49644        38.500  

  22318595.47104 117754439.33414     -2532.68404        38.400  

  22357815.99304 117960541.83314      3007.84404        38.700  

  22211939.79704 117193958.91814     -3367.34804        38.400  

  23530216.87204 124121547.76604      3812.28104        38.000  

  20434147.52805 107851602.35215     -1567.34805        39.300  

  24064409.52404 126928760.42304      2313.45704        37.700  

 06 10 29 01 45 14.0000000  0  9G 1G21G 6G17G30G22G10G26G16                     
  19610110.80405 103521257.76115       387.12505        39.600  

  20756037.62345 109543142.10055      1864.10245        39.100  

  22016747.81444 116168215.20744      -791.38744        38.700  

  22319077.51004 117756972.50014     -2533.42604        38.500  

  22357243.62244 117957534.20254      3007.55144        38.600  

  22212580.62704 117197326.34514     -3367.56604        38.400  

  23529491.48744 124117735.82754      3811.81344        37.800  

  20434445.83305 107853169.90015     -1567.67205        39.000  

  24063969.35004 126926447.30014      2312.81304        38.000  

 06 10 29 01 45 15.0000000  0  9G 1G21G 6G17G30G22G10G26G16                     
  19610037.21805 103520871.04115       386.44105        39.600  

  20755682.94545 109541278.21245      1863.52345        39.200  

  22016898.45044 116169006.86344      -792.20344        38.400  

  22319559.65004 117759506.16314     -2534.19104        38.700  

  22356671.33404 117954526.77104      3007.60504        38.200  

  22213221.46904 117200694.13014     -3368.16004        38.700  

  23528766.11804 124113924.00204      3811.68804        37.900  

  20434744.21305 107854737.83515     -1568.30905        39.300  

  24063529.30404 126924134.73614      2312.45304        38.000  

 06 10 29 01 45 16.0000000  0  9G 1G21G 6G17G30G22G10G26G16                     
  19609963.76345 103520485.16755       385.42645        39.400  

  20755328.40445 109539415.01845      1862.88745        39.100  

  22017049.27904 116169799.45204      -792.99604        38.600  

  22320041.91104 117762040.49114     -2534.69904        38.300  

  22356099.12504 117951519.74214      3007.31304        38.300  

  22213862.39604 117204062.37014     -3368.10904        38.500  

  23528040.84504 124110112.49414      3811.58204        38.000  

  20435042.66005 107856306.29315     -1568.52005        39.300  

  24063089.36104 126921822.88614      2311.56304        38.200  

 06 10 29 01 45 17.0000000  0  9G 1G21G 6G17G30G22G10G26G16                     
  19609890.42545 103520099.83245       385.11745        39.400  

  20754973.91245 109537552.23745      1862.67245        39.300  

  22017200.20204 116170592.65714      -793.51204        38.500  

  22320524.25704 117764575.15614     -2534.93404        38.300  

  22355526.90104 117948512.81514      3006.96104        38.500  

  22214503.39004 117207430.83814     -3368.37904        38.600  

  23527315.55104 124106300.97314      3811.56604        38.100  

  20435341.15845 107857875.01255     -1568.85545        39.300  

  24062649.49204 126919511.44914      2311.23804        37.700  

 06 10 29 01 45 18.0000000  0  9G 1G21G 6G17G30G22G10G26G16                     
  19609817.24245 103519715.16545       384.45745        39.500  

  20754619.51805 109535689.94605      1862.03505        39.000  

  22017351.30804 116171386.60914      -794.32404        38.600  

  22321006.66244 117767110.26554     -2535.27344        38.600  

  22354954.76004 117945506.05214      3006.51604        38.200  

  22215144.44304 117210799.58314     -3368.64804        38.700  

  23526590.25604 124102489.53714      3811.15204        38.000  

  20435639.72705 107859444.01805     -1569.12505        39.100  

  24062209.73604 126917200.53914      2310.70304        37.800  

 06 10 29 01 45 19.0000000  0  9G 1G21G 6G17G30G22G10G26G16                     
  19609744.16805 103519331.13705       383.79305        39.600  

  20754265.22605 109533828.14415      1861.59005        39.100  

  22017502.56104 116172181.28314      -795.16004        38.600  

  22321489.15544 117769645.84744     -2535.75044        38.400  

  22354382.62504 117942499.47714      3006.22704        38.600  

  22215785.56304 117214168.61514     -3368.96104        38.500  

  23525864.93044 124098678.17454      3811.23044        37.800  

  20435938.37705 107861013.38815     -1569.69905        39.200  

  24061770.08704 126914890.15114      2309.96504        37.800  

 06 10 29 01 45 20.0000000  0  9G 1G21G 6G17G30G22G10G26G16                     
  19609671.22605 103518947.91015       382.68405        39.700  

  20753911.06505 109531967.01415      1860.91805        39.000  

  22017653.95504 116172976.81314      -795.84004        38.700  

  22321971.77744 117772182.02444     -2536.35544        38.300  

  22353810.56504 117939493.19214      3006.22704        38.500  

  22216426.71904 117217538.10614     -3369.75804        38.500  

  23525139.67244 124094867.07144      3811.09444        38.100  

  20436237.12605 107862583.23615     -1569.99205        39.200  

  24061330.54904 126912580.40314      2309.52304        37.600  

 06 10 29 01 45 21.0000000  0  9G 1G21G 6G17G30G22G10G26G16                     
  19609598.43805 103518565.38915       382.03905        39.500  

  20753556.99705 109530106.41615      1860.43005        38.900  

  22017805.50204 116173773.14214      -796.63704        38.700  

  22322454.48244 117774718.72644     -2537.11344        38.500  

  22353238.52404 117936487.15814      3006.05104        38.300  

  22217068.02804 117220907.91414     -3370.13304        38.200  

  23524414.46104 124091056.07904      3811.01204        38.000  

  20436535.89605 107864153.45615     -1570.49205        39.000  

  24060891.13804 126910271.23714      2309.21504        37.700  

 06 10 29 01 45 22.0000000  0  9G 1G21G 6G17G30G22G10G26G16                     
  19609525.75005 103518183.43615       381.49605        39.600  

  20753203.00505 109528246.23615      1860.18405        39.000  

  22017957.17004 116174570.13514      -797.21904        38.800  

  22322937.27404 117777255.79004     -2537.21104        38.600  

  22352666.53604 117933481.24714      3005.63704        38.600  

  22217709.30544 117224277.92154     -3369.96544        38.400  

  23523689.25904 124087245.13214      3810.74204        37.700  

  20436834.78205 107865723.92615     -1570.78105        39.100  

  24060451.80204 126907962.50214      2308.44104        37.700  

 06 10 29 01 45 23.0000000  0  9G 1G21G 6G17G30G22G10G26G16                     
  19609453.18105 103517802.06315       381.07405        39.500  

  20752849.12505 109526386.52015      1859.51605        39.000  

  22018108.95204 116175367.79014      -798.06604        38.700  

  22323420.12604 117779793.25514     -2537.80904        38.500  

  22352094.55204 117930475.43714      3005.44904        38.500  

  22218350.68644 117227648.20544     -3370.41044        38.500  

  23522964.07504 124083434.21214      3810.63304        38.000  

  20437133.73505 107867294.68415     -1571.03105        39.200  

  24060012.54904 126905654.24814      2308.18004        37.700  

 06 10 29 01 45 24.0000000  0  9G 1G21G 6G17G30G22G10G26G16                     
  19609380.75645 103517421.47255       380.12145        39.600  

  20752495.36305 109524527.41115      1858.72705        38.900  

  22018260.92204 116176166.31414      -799.08604        38.500  

  22323903.11504 117782331.29714     -2538.71104        38.600  

  22351522.59804 117927469.92014      3005.24604        38.100  

  22218992.07844 117231018.87144     -3370.90244        38.600  

  23522238.92944 124079623.48054      3810.60944        38.000  

  20437432.73305 107868865.86615     -1571.53105        39.100  

  24059573.42504 126903346.59714      2307.37904        38.100  

 06 10 29 01 45 25.0000000  0  9G 1G21G 6G17G30G22G10G26G16                     
  19609308.46205 103517041.52605       379.80505        39.800  

  20752141.68305 109522668.79715      1858.28505        38.900  

  22018413.00104 116176965.54214      -799.63704        38.700  

  22324386.18904 117784869.79214     -2538.71104        38.500  

  22350950.69204 117924464.60214      3005.26604        38.700  

  22219633.55344 117234389.82644     -3371.18044        38.600  

  23521513.79804 124075812.85104      3810.98804        38.000  

  20437731.77605 107870437.42515     -1571.64105        39.000  

  24059134.41204 126901039.51414      2306.75804        37.800  

 06 10 29 01 45 26.0000000  0  9G 1G21G 6G17G30G22G10G26G16                     
  19609236.27405 103516662.24515       378.89105        39.500  

  20751788.10505 109520810.72015      1857.69505        39.100  

  22018565.25104 116177765.52714      -800.53104        38.500  

  22324869.33004 117787408.75314     -2539.26604        38.300  

  22350378.80404 117921459.45514      3005.16004        38.600  

  22220275.07044 117237761.09244     -3371.40644        38.300  

  23520788.70004 124072002.34014      3810.58204        37.900  

  20438030.87605 107872009.29515     -1572.22305        39.100  

  24058695.46004 126898732.92414      2306.27304        37.500  

 06 10 29 01 45 27.0000000  0  9G 1G21G 6G17G30G22G10G26G16                     
  19609164.23905 103516283.68815       378.06605        39.600  

  20751434.64805 109518953.17015      1857.35205        39.000  

  22018717.66904 116178566.29014      -801.25004        38.600  

  22325352.57004 117789948.22314     -2539.89104        38.400  

  22349807.00504 117918454.58214      3004.62104        38.500  

  22220916.68604 117241132.70404     -3371.97704        38.600  

  23520063.60404 124068191.96214      3809.93404        38.100  

  20438330.06305 107873581.58015     -1572.67205        39.400  

  24058256.63404 126896426.90814      2305.79304        37.800  

 06 10 29 01 45 28.0000000  0  9G 1G21G 6G17G30G22G10G26G16                     
  19609092.32705 103515905.77015       377.78505        39.600  

  20751081.28605 109517096.17215      1856.69505        39.000  

  22018870.21704 116179367.81614      -801.93804        38.400  

  22325835.92704 117792488.18314     -2540.09004        38.500  

  22349235.23604 117915449.88914      3004.57404        38.500  

  22221558.34704 117244504.61414     -3372.11704        38.400  

  23519338.54644 124064381.69254      3810.33644        37.900  

  20438629.30105 107875154.19315     -1572.49605        39.100  

  24057817.91204 126894121.45614      2305.07404        37.700  

 06 10 29 01 45 29.0000000  0  9G 1G21G 6G17G30G22G10G26G16                     
  19609020.52705 103515528.47515       377.01605        39.700  

  20750727.97705 109515239.58915      1855.99205        38.900  

  22019022.88204 116180170.00314      -802.42604        38.400  

  22326319.34204 117795028.51614     -2540.51604        38.600  

  22348663.48604 117912445.31014      3004.37904        38.200  

  22222200.06304 117247876.76214     -3372.10904        38.600  

  23518613.47404 124060571.46104      3810.26204        38.000  

  20438928.61705 107876727.09115     -1573.35205        39.100  

  24057379.26304 126891816.44014      2304.81604        37.800  

 06 10 29 01 45 30.0000000  0  9G 1G21G 6G17G30G22G10G26G16                     
  19608948.86045 103515151.83555       376.15645        39.600  

  20750374.74905 109513383.51515      1855.94905        39.200  

  22019175.64804 116180972.92014      -803.19904        38.600  

  22326802.82904 117797569.33014     -2541.02304        38.400  

  22348091.77604 117909440.93214      3004.19504        38.300  

  22222841.84304 117251249.21414     -3372.47304        38.300  

  23517888.41004 124056761.32514      3810.16804        38.100  

  20439227.97805 107878300.32715     -1573.38705        39.200  

  24056940.73604 126889511.94414      2304.32804        38.000  

 06 10 29 01 45 31.0000000  0  9G 1G21G 6G17G30G22G10G26G16                     
  19608877.31505 103514775.80405       375.77705        39.600  

  20750021.66205 109511527.94615      1855.48405        39.000  

  22019328.61004 116181776.55314      -803.67604        38.600  

  22327286.37004 117800110.56714     -2541.32804        38.400  

  22347520.10804 117906436.69714      3004.14504        38.600  

  22223483.63705 117254621.92215     -3372.52305        38.900  

  23517163.37004 124052951.27014      3809.90604        38.300  

  20439527.41305 107879873.86315     -1573.84405        39.400  

  24056502.27804 126887207.96614      2303.71104        37.700  

 06 10 29 01 45 32.0000000  0  9G 1G21G 6G17G30G22G10G26G16                     
  19608805.86705 103514400.39115       375.09005        39.400  

  20749668.64045 109509672.82355      1854.66045        38.900  

  22019481.67444 116182580.88254      -804.71144        38.500  

  22327770.01504 117802652.21414     -2541.75404        38.400  

  22346948.44204 117903432.60114      3004.18404        38.600  

  22224125.45804 117257994.89814     -3373.12904        38.400  

  23516438.34804 124049141.26014      3809.76604        38.000  

  20439826.91905 107881447.69615     -1573.89105        39.100  

  24056063.92404 126884904.45314      2302.93004        37.800  

 06 10 29 01 45 33.0000000  0  9G 1G21G 6G17G30G22G10G26G16                     
  19608734.54005 103514025.67315       374.35905        39.600  

  20749315.73305 109507818.23205      1854.12505        38.900  

  22019634.87804 116183385.96704      -805.29704        38.600  

  22328253.77304 117805194.36314     -2542.40604        38.400  

  22346376.80104 117900428.73214      3004.07404        38.300  

  22224767.34404 117261368.17914     -3373.30904        38.300  

  23515713.36204 124045331.36214      3809.95304        38.200  

  20440126.48345 107883021.89755     -1574.26245        39.300  

  24055625.71604 126882601.49314      2302.60904        37.800  

 06 10 29 01 45 34.0000000  0  9G 1G21G 6G17G30G22G10G26G16                     
  19608663.34905 103513651.55615       373.87505        39.700  

  20748962.90305 109505964.10815      1854.02705        39.100  

  22019788.19904 116184191.77014      -806.02004        38.500  

  22328737.60404 117807736.95214     -2542.82804        38.500  

  22345805.19244 117897425.04154      3003.55144        38.500  

  22225409.35504 117264741.74114     -3373.74604        38.400  

  23514988.37904 124041521.55714      3809.62504        37.900  

  20440426.07105 107884596.40205     -1574.41405        39.200  

  24055187.56104 126880299.01514      2302.23804        37.700  

 06 10 29 01 45 35.0000000  0  9G 1G21G 6G17G30G22G10G26G16                     
  19608592.30805 103513278.19415       372.89805        39.700  

  20748610.20805 109504110.57915      1853.16005        39.100  

  22019941.69904 116184998.38614      -807.15204        38.400  

  22329221.52704 117810280.03614     -2543.19904        38.700  

  22345233.64744 117894421.59944      3003.15644        38.500  

  22226051.40204 117268115.65614     -3373.98404        38.500  

  23514263.43504 124037711.91414      3809.41804        38.000  

  20440725.78805 107886171.34015     -1575.05905        39.300  

  24054749.53504 126877997.16614      2301.30104        37.700  

 06 10 29 01 45 36.0000000  0  9G 1G21G 6G17G30G22G10G26G16                     
  19608521.40905 103512905.62615       372.14105        39.400  

  20748257.61445 109502257.72155      1852.27745        39.100  

  22020095.36544 116185805.86954      -808.03544        38.700  

  22329705.57604 117812823.75614     -2543.85904        38.400  

  22344662.18144 117891418.47144      3003.03944        38.500  

  22226693.52944 117271490.01754     -3374.34844        38.200  

  23513538.53804 124033902.52814      3809.29304        37.900  

  20441025.58205 107887746.74615     -1575.65605        39.300  

  24054311.63504 126875695.96214      2301.02304        37.700  

 06 10 29 01 45 37.0000000  0  9G 1G21G 6G17G30G22G10G26G16                     
  19608450.65605 103512533.82215       371.34805        39.500  

  20747905.14605 109500405.45805      1851.80105        39.100  

  22020249.18044 116186614.20244      -808.68844        38.600  

  22330189.72204 117815368.03714     -2544.64804        38.600  

  22344090.71104 117888415.65204      3002.72704        38.500  

  22227335.71604 117274864.80104     -3375.00404        38.400  

  23512813.67104 124030093.31514      3808.96904        38.000  

  20441325.50945 107889322.60855     -1576.19945        39.200  

  24053873.85504 126873395.41814      2300.03904        37.700  

 06 10 29 01 45 38.0000000  0  9G 1G21G 6G17G30G22G10G26G16                     
  19608380.04645 103512162.84155       370.76245        39.600  

  20747552.81005 109498553.85215      1851.28105        39.000  

  22020403.20244 116187423.42544      -809.50044        38.400  

  22330674.00904 117817912.94914     -2545.05904        38.600  

  22343519.36244 117885413.18254      3002.43044        38.500  

  22227977.98304 117278240.02214     -3375.33204        38.600  

  23512088.85004 124026284.37314      3808.92604        37.900  

  20441625.49745 107890898.95145     -1576.60945        39.300  

  24053436.20944 126871095.53454      2299.57444        37.900  

 06 10 29 01 45 39.0000000  0  9G 1G21G 6G17G30G22G10G26G16                     
  19608309.59345 103511792.63845       369.92245        39.600  

  20747200.58905 109496702.90415      1850.67205        39.000  

  22020557.36544 116188233.51444      -810.23844        38.600  

  22331158.41204 117820458.44014     -2545.89104        38.600  

  22342948.08204 117882411.01604      3002.05504        38.600  

  22228620.33204 117281615.66514     -3375.70704        38.400  

  23511364.08044 124022475.67654      3808.46544        38.000  

  20441925.53845 107892475.77045     -1577.09845        39.100  

  24052998.66804 126868796.31604      2298.84804        37.900  

 06 10 29 01 45 40.0000000  0  9G 1G21G 6G17G30G22G10G26G16                     
  19608239.27045 103511423.07345       369.12945        39.700  

  20746848.47305 109494852.41115      1850.41005        39.000  

  22020711.65944 116189044.31544      -810.92244        38.400  

  22331642.87604 117823004.36814     -2546.48804        38.200  

  22342376.79304 117879409.03814      3001.75004        38.400  

  22229262.71804 117284991.58514     -3375.94104        38.200  

  23510639.32404 124018667.04404      3808.44504        38.100  

  20442225.63445 107894052.89245     -1577.30545        39.200  

  24052561.22644 126866497.57754      2298.37544        37.800  

 06 10 29 01 45 41.0000000  0  9G 1G21G 6G17G30G22G10G26G16                     
  19608169.05745 103511054.13645       368.64545        39.400  

  20746496.42745 109493002.44755      1850.09845        39.300  

  22020866.07144 116189855.85744      -811.81644        38.500  

  22332127.46504 117825550.73014     -2546.75404        38.300  

  22341805.57804 117876407.19914      3001.89804        38.700  

  22229905.18604 117288367.78114     -3376.25804        38.400  

  23509914.59804 124014858.48414      3808.46104        37.900  

  20442525.83845 107895630.34345     -1577.54345        39.100  

  24052123.86744 126864199.36744      2297.92644        37.800  

 06 10 29 01 45 42.0000000  0  9G 1G21G 6G17G30G22G10G26G16                     
  19608098.97245 103510685.85645       367.96945        39.500  

  20746144.49944 109491152.97244      1849.23444        38.800  

  22021020.64404 116190668.11204      -812.91804        38.400  

  22332612.10204 117828097.55514     -2547.29704        38.500  

  22341234.36504 117873405.55614      3001.44904        38.600  

  22230547.74504 117291744.27314     -3376.59004        38.600  

  23509189.86804 124011050.03714      3807.96504        38.000  

  20442826.07405 107897208.12305     -1578.00405        39.300  

  24051686.65544 126861901.66744      2297.47344        38.000  

 06 10 29 01 45 43.0000000  0  9G 1G21G 6G17G30G22G10G26G16                     
  19608028.99005 103510318.23105       367.29705        39.400  

  20745792.63645 109489304.00245      1848.81645        39.100  

  22021175.33204 116191481.08414      -813.25804        38.600  

  22333096.82104 117830644.83814     -2547.56304        38.200  

  22340663.22704 117870404.11314      3001.27004        38.200  

  22231190.33104 117295121.04414     -3376.84804        38.400  

  23508465.13404 124007241.67614      3808.16004        38.100  

  20443126.37305 107898786.24915     -1578.13705        39.200  

  24051249.50704 126859604.50004      2297.01204        37.900  

 06 10 29 01 45 44.0000000  0  9G 1G21G 6G17G30G22G10G26G16                     
  19607959.15505 103509951.24115       366.91405        39.600  

  20745440.89344 109487455.53844      1848.18044        38.700  

  22021330.16704 116192294.80714      -814.09804        38.600  

  22333581.64804 117833192.55514     -2547.84004        38.400  

  22340092.10704 117867402.82214      3001.14804        38.700  

  22231832.97544 117298498.09454     -3376.89544        38.400  

  23507740.44104 124003433.37714      3808.09404        38.200  

  20443426.74105 107900364.68415     -1578.48005        39.000  

  24050812.47604 126857307.85714      2296.16804        37.600  

 06 10 29 01 45 45.0000000  0  9G 1G21G 6G17G30G22G10G26G16                     
  19607889.43105 103509584.88515       366.18405        39.500  

  20745089.20105 109485607.51405      1847.89105        39.100  

  22021485.11304 116193109.22014      -814.77004        38.700  

  22334066.57204 117835740.71014     -2548.35204        38.200  

  22339520.99704 117864401.67214      3001.36304        38.600  

  22232475.67144 117301875.42444     -3377.20744        38.400  

  23507015.77444 123999625.16054      3808.20344        37.900  

  20443727.17905 107901943.44815     -1578.87505        39.100  

  24050375.52404 126855011.66514      2295.64504        38.000  

 06 10 29 01 45 46.0000000  0  9G 1G21G 6G17G30G22G10G26G16                     
  19607819.85805 103509219.21315       365.33205        39.600  

  20744737.63705 109483760.04915      1847.15605        39.100  

  22021640.25604 116193924.40114      -815.58604        38.600  

  22334551.54604 117838289.32414     -2548.71504        38.200  

  22338949.91804 117861400.77114      3000.67604        38.600  

  22233118.40804 117305253.05104     -3377.52304        38.300  

  23506291.10044 123995817.07444      3808.13744        38.100  

  20444027.67405 107903522.56815     -1579.37105        39.100  

  24049938.68404 126852716.06414      2295.27304        37.900  

 06 10 29 01 45 47.0000000  0  9G 1G21G 6G17G30G22G10G26G16                     
  19607750.38905 103508854.24315       364.42605        39.500  

  20744386.18905 109481913.12915      1846.52705        39.300  

  22021795.53704 116194740.34614      -816.27704        38.700  

  22335036.63904 117840838.46914     -2549.37504        38.300  

  22338378.88904 117858400.08614      3000.53504        38.300  

  22233761.22444 117308631.04954     -3378.15644        38.400  

  23505566.49844 123992009.15544      3807.59444        38.100  

  20444328.23505 107905102.06115     -1580.01205        39.100  

  24049501.95904 126850421.02014      2294.78504        37.900  

 06 10 29 01 45 48.0000000  0  9G 1G21G 6G17G30G22G10G26G16                     
  19607681.06605 103508489.95615       363.89505        39.600  

  20744034.84745 109480066.75555      1845.93845        38.900  

  22021950.95604 116195557.05914      -817.16404        38.500  

  22335521.79304 117843388.09714     -2549.88704        38.400  

  22337807.90004 117855399.61614      3000.14804        38.600  

  22234404.11044 117312009.34044     -3378.49644        38.500  

  23504841.88044 123988201.31944      3807.74644        37.900  

  20444628.86105 107906681.90915     -1579.99605        39.200  

  24049065.32104 126848126.50814      2294.11304        38.000  

 06 10 29 01 45 49.0000000  0  9G 1G21G 6G17G30G22G10G26G16                     
  19607611.86205 103508126.30915       363.23405        39.700  

  20743683.58605 109478220.88605      1845.48005        38.900  

  22022106.50204 116196374.51314      -817.71104        38.700  

  22336007.07404 117845938.17714     -2550.18404        38.600  

  22337236.97804 117852399.32814      3000.05104        38.200  

  22235047.04044 117315387.94344     -3378.77744        38.600  

  23504117.27104 123984393.60904      3807.62504        38.000  

  20444929.55045 107908262.10155     -1580.48445        39.200  

  24048628.80604 126845832.54414      2293.73804        37.800  

 06 10 29 01 45 50.0000000  0  9G 1G21G 6G17G30G22G10G26G16                     
  19607542.80305 103507763.38615       362.49605        39.700  

  20743332.43005 109476375.56515      1844.91005        39.000  

  22022262.21704 116197192.75314      -818.71904        38.700  

  22336492.43444 117848488.75554     -2550.67644        38.500  

  22336666.07804 117849399.28014      3000.02704        38.100  

  22235690.01344 117318766.89844     -3379.29744        38.600  

  23503392.69404 123980586.03814      3807.44104        38.100  

  20445230.34005 107909842.67605     -1580.54705        39.200  

  24048192.36604 126843539.14014      2292.93804        37.900  

 06 10 29 01 45 51.0000000  0  9G 1G21G 6G17G30G22G10G26G16                     
  19607473.87005 103507401.12315       362.16805        39.600  

  20742981.38605 109474530.78015      1844.70705        38.900  

  22022418.06604 116198011.76014      -819.36704        38.600  

  22336977.89804 117851039.84404     -2551.32404        38.600  

  22336095.23504 117846399.45314      2999.88304        38.600  

  22236333.08004 117322146.15504     -3379.37904        38.500  

  23502668.16204 123976778.59414      3807.43004        38.100  

  20445531.19405 107911423.63715     -1581.05105        39.100  

  24047756.06504 126841246.32314      2292.51604        37.900  

 06 10 29 01 45 52.0000000  0  9G 1G21G 6G17G30G22G10G26G16                     
  19607405.07405 103507039.58615       361.05905        39.600  

  20742630.42205 109472686.57315      1843.87505        39.300  

  22022574.06304 116198831.55414      -820.31604        38.600  

  22337463.43704 117853591.42314     -2551.85904        38.500  

  22335524.42804 117843399.87514      2999.33604        38.500  

  22236976.15804 117325525.75214     -3379.95304        38.200  

  23501943.62504 123972971.32114      3807.13304        38.000  

  20445832.11405 107913004.99115     -1581.64105        39.100  

  24047319.88044 126838954.07154      2291.74644        37.800  

 06 10 29 01 45 53.0000000  0  9G 1G21G 6G17G30G22G10G26G16                     
  19607336.39505 103506678.71615       360.37505        39.600  

  20742279.58305 109470842.86415      1843.39105        39.000  

  22022730.22704 116199652.08014      -821.14104        38.500  

  22337949.07504 117856143.47514     -2552.42604        38.500  

  22334953.66444 117840400.46254      2999.27744        38.600  

