     2.10           OBSERVATION DATA    G (GPS)             RINEX VERSION / TYPE
Convert                                 12-Aug-2008 16:38   PGM / RUN BY / DATE 
Signal Strength values S1,S2 are in dBHz                    COMMENT             
                                                            MARKER NAME         
                                                            MARKER NUMBER       
                                                            OBSERVER / AGENCY   
SVA05050095         NOV RT2             2.210               REC # / TYPE / VERS 
                                                            ANT # / TYPE        
  3991034.0958   562999.0071  4926986.1051                  APPROX POSITION XYZ 
        0.0000        0.0000        0.0000                  ANTENNA: DELTA H/E/N
     1     1                                                WAVELENGTH FACT L1/2
     1     1     7   G01   G06   G10   G16   G17   G21   G22WAVELENGTH FACT L1/2
     1     1     2   G26   G30                              WAVELENGTH FACT L1/2
                                                            COMMENT             
                                                            COMMENT             
                                                            COMMENT             
                                                            COMMENT             
                                                            COMMENT             
     8    C1    L1    D1    S1    P2    L2    D2    S2      # / TYPES OF OBSERV 
     1.000                                                  INTERVAL            
  2006    10    29    01    44    21.0000000    GPS         TIME OF FIRST OBS   
  2006    10    29    01    54    25.0000000    GPS         TIME OF LAST OBS    
    14                                                      LEAP SECONDS        
                                                            END OF HEADER       
 06 10 29 01 44 21.0000000  0  9G22G 6G21G10G30G26G17G16G 1                     
  22178698.16804 130926763.74914     -3350.86304        38.400  

  22008984.32704 130034908.41714      -750.92604        38.500  

  20774972.92005 109173214.02315      1891.88705        39.000  

  23567962.36404 138227391.20014      3817.62904        37.700  

  22387619.04344 132024647.19344      3018.50844        38.500  

  20418735.65545 121678093.17245     -1548.74645        38.900  

  22293639.66744 131530782.18344     -2507.62544        38.300  

  24087442.63204 140957277.50614      2341.51604        37.900  

  19614192.13005 117450188.30215       423.10505        39.400  

 06 10 29 01 44 22.0000000  0  9G22G 6G21G10G30G26G17G16G 1                     
  22179335.89104 130930114.60014     -3351.09804        38.500  

  22009127.28204 130035659.90614      -751.68004        38.600  

  20774612.90105 109171322.36715      1891.35505        39.000  

  23567235.84004 138223573.41014      3818.03104        38.100  

  22387044.72644 132021628.90544      3018.35944        38.600  

  20419030.41305 121679642.03805     -1548.82005        38.900  

  22294116.88744 131533290.09244     -2508.21944        38.400  

  24086997.12904 140954936.27614      2340.91404        37.900  

  19614111.70605 117449765.69015       422.25805        39.400  

 06 10 29 01 44 23.0000000  0  9G22G 6G21G10G30G26G17G16G 1                     
  22179973.59304 130933465.57514     -3351.06604        38.500  

  22009270.38804 130036411.99314      -752.40604        38.600  

  20774252.99705 109169431.01715      1891.36705        39.000  

  23566509.33604 138219755.55814      3818.05904        38.000  

  22386470.37844 132018610.64244      3018.02344        38.500  

  20419325.25305 121681191.13315     -1549.21905        39.200  

  22294594.20644 131535798.28744     -2508.41044        38.400  

  24086551.70304 140952595.38214      2340.77704        38.000  

  19614031.38305 117449343.57015       421.94905        39.600  

 06 10 29 01 44 24.0000000  0  9G22G 6G21G10G30G26G17G16G 1                     
  22180611.28544 130936816.81554     -3351.42644        38.600  

  22009413.60704 130037164.71914      -753.02304        38.500  

  20773893.18045 109167540.14355      1890.61745        38.900  

  23565782.86204 138215937.72914      3817.78504        38.100  

  22385896.09344 132015592.47844      3017.91444        38.400  

  20419620.04105 121682740.47215     -1549.85905        39.300  

  22295071.55744 131538306.90444     -2509.09844        38.400  

  24086106.36304 140950254.96914      2340.24204        37.600  

  19613951.15205 117448922.03815       421.08605        39.300  

 06 10 29 01 44 25.0000000  0  9G22G 6G21G10G30G26G17G16G 1                     
  22181249.08644 130940168.33844     -3351.78144        38.300  

  22009556.97104 130037918.22014      -754.06604        38.500  

  20773533.47105 109165649.77005      1889.84805        39.100  

  23565056.36504 138212120.00514      3817.58204        38.300  

  22385321.75744 132012574.53344      3017.76644        38.500  

  20419914.87705 121684290.14315     -1549.76205        39.300  

  22295549.03844 131540815.97044     -2509.26244        38.600  

  24085661.10404 140947915.08014      2339.28904        37.800  

  19613871.06405 117448501.18015       420.54305        39.600  

 06 10 29 01 44 26.0000000  0  9G22G 6G21G10G30G26G17G16G 1                     
  22181886.95844 130943520.27744     -3352.14144        38.600  

  22009700.52644 130038672.55054      -754.91044        38.600  

  20773173.90845 109163759.99555      1889.52345        39.100  

  23564329.90744 138208302.45654      3817.79344        38.000  

  22384747.47944 132009556.85744      3017.63344        38.300  

  20420209.87245 121685840.27755     -1550.48845        39.300  

  22296026.58944 131543325.64944     -2510.11744        38.600  

  24085215.90944 140945575.78954      2339.08244        37.800  

  19613791.10845 117448081.09055       419.66045        39.700  

 06 10 29 01 44 27.0000000  0  9G22G 6G21G10G30G26G17G16G 1                     
  22182524.84944 130946872.56644     -3352.73844        38.400  

  22009844.23004 130039427.64604      -755.53104        38.700  

  20772814.42305 109161870.74105      1889.18805        38.900  

  23563603.47304 138204485.06104      3817.34004        37.800  

  22384173.24004 132006539.39004      3017.35904        38.500  

  20420504.92005 121687390.77705     -1550.55505        39.000  

  22296504.26504 131545835.79404     -2510.39504        38.400  

  24084770.85504 140943237.07204      2338.37104        38.100  

  19613711.29105 117447661.67005       419.02005        39.600  

 06 10 29 01 44 28.0000000  0  9G22G 6G21G10G30G26G17G16G 1                     
  22183162.83144 130950225.24844     -3352.93444        38.500  

  22009988.10204 130040183.62114      -756.61304        38.700  

  20772455.05605 109159982.14115      1888.43405        39.100  

  23562877.08804 138200667.85614      3817.09804        37.900  

  22383599.09104 132003522.25714      3017.02704        38.400  

  20420800.05405 121688941.75615     -1551.40605        39.200  

  22296982.04204 131548346.54814     -2510.99204        38.400  

  24084325.90244 140940899.01354      2337.60544        37.900  

  19613631.63305 117447243.04415       418.26205        39.600  

 06 10 29 01 44 29.0000000  0  9G22G 6G21G10G30G26G17G16G 1                     
  22183800.90744 130953578.30544     -3353.46144        38.300  

  22010132.11504 130040940.36614      -757.22304        38.700  

  20772095.77805 109158094.08115      1887.89805        39.100  

  23562150.73104 138196850.79914      3816.99604        38.100  

  22383024.95104 132000505.33614      3016.93804        38.300  

  20421095.29405 121690493.11015     -1551.74205        39.300  

  22297459.94404 131550857.83614     -2511.74204        38.300  

  24083881.12904 140938561.46804      2337.35904        37.800  

  19613552.10105 117446825.13015       417.43005        39.700  

 06 10 29 01 44 30.0000000  0  9G22G 6G21G10G30G26G17G16G 1                     
  22184439.01344 130956931.70244     -3353.40644        38.500  

  22010276.29304 130041697.93314      -757.94904        38.600  

  20771736.55805 109156206.58715      1887.39805        39.100  

  23561424.41644 138193033.92454      3816.53944        38.200  

  22382450.89804 131997488.71214      3016.39504        38.600  

  20421390.55505 121692044.88815     -1551.92605        39.300  

  22297937.91904 131553369.63214     -2511.94104        38.500  

  24083436.38644 140936224.55854      2336.87544        37.900  

  19613472.70045 117446407.93255       416.94545        39.500  

 06 10 29 01 44 31.0000000  0  9G22G 6G21G10G30G26G17G16G 1                     
  22185077.26004 130960285.48904     -3353.66804        38.400  

  22010420.63244 130042456.31254      -758.88744        38.700  

  20771377.47605 109154319.67715      1886.79305        39.200  

  23560698.14504 138189217.17104      3816.89504        38.100  

  22381876.86504 131994472.30814      3016.21904        38.200  

  20421685.93105 121693597.06015     -1552.31605        39.100  

  22298416.02304 131555881.99614     -2512.68004        38.600  

  24082991.81704 140933888.23804      2336.05904        37.800  

  19613393.44445 117445991.47245       416.10545        39.500  

 06 10 29 01 44 32.0000000  0  9G22G 6G21G10G30G26G17G16G 1                     
  22185715.52304 130963639.60714     -3354.34404        38.500  

  22010565.03444 130043215.41144      -759.32444        38.600  

  20771018.47205 109152433.28515      1886.25005        38.900  

  23559971.83544 138185400.53654      3816.43444        37.800  

  22381302.92104 131991456.09514      3016.12104        38.500  

  20421981.36205 121695149.58715     -1552.63705        39.300  

  22298894.17004 131558394.80614     -2512.95704        38.300  

  24082547.31844 140931552.41054      2335.62544        37.900  

  19613314.35745 117445575.67145       415.39545        39.800  

 06 10 29 01 44 33.0000000  0  9G22G 6G21G10G30G26G17G16G 1                     
  22186353.85004 130966993.98314     -3354.46104        38.400  

  22010709.63944 130043975.24944      -760.14144        38.600  

  20770659.58705 109150547.37615      1885.63305        39.000  

  23559245.59244 138181583.95244      3816.62944        38.000  

  22380728.97704 131988440.03404      3016.39104        38.300  

  20422276.87805 121696702.44115     -1553.07805        39.100  

  22299372.40804 131560908.09014     -2513.55104        38.400  

  24082102.91644 140929217.11644      2335.13344        38.100  

  19613235.34945 117445160.52145       414.64145        39.600  

 06 10 29 01 44 34.0000000  0  9G22G 6G21G10G30G26G17G16G 1                     
  22186992.17644 130970348.66454     -3354.72344        38.500  

  22010854.35944 130044735.83844      -761.04744        38.400  

  20770300.79405 109148661.97015      1885.10505        39.200  

  23558519.34644 138177767.50744      3816.46144        38.100  

  22380155.09504 131985424.22504      3015.50004        38.700  

  20422572.41905 121698255.63215     -1553.43805        39.200  

  22299850.77044 131563421.84054     -2514.14144        38.600  

  24081658.63804 140926882.33804      2334.80504        37.700  

  19613156.46845 117444746.02845       414.03945        39.700  

 06 10 29 01 44 35.0000000  0  9G22G 6G21G10G30G26G17G16G 1                     
  22187630.57504 130973703.76504     -3355.20704        38.600  

  22010999.27904 130045497.25904      -761.96104        38.600  

  20769942.07445 109146777.16255      1884.43045        39.100  

  23557793.15344 138173951.22244      3816.18044        38.100  

  22379581.24304 131982408.64204      3015.36304        38.400  

  20422868.05205 121699809.28715     -1554.19105        39.300  

  22300329.20904 131565936.15404     -2514.64104        38.400  

  24081214.51144 140924548.18054      2334.12544        37.600  

  19613077.72705 117444332.30105       413.21105        39.400  

 06 10 29 01 44 36.0000000  0  9G22G 6G21G10G30G26G17G16G 1                     
  22188269.11504 130977059.16414     -3355.51204        38.500  

  22011144.34504 130046259.44514      -762.55104        38.600  

  20769583.49905 109144892.88505      1883.90605        39.100  

  23557066.95904 138170135.04904      3816.33604        38.000  

  22379007.44104 131979393.28104      3015.38304        38.500  

  20423163.78105 121701363.28115     -1554.07805        39.200  

  22300807.79644 131568450.95454     -2514.93844        38.500  

  24080770.49044 140922214.58144      2333.27344        37.900  

  19612999.12805 117443919.22415       412.77705        39.500  

 06 10 29 01 44 37.0000000  0  9G22G 6G21G10G30G26G17G16G 1                     
  22188907.70604 130980414.82714     -3355.74204        38.400  

  22011289.52504 130047022.31314      -763.18004        38.500  

  20769225.03105 109143009.06915      1883.75405        39.100  

  23556340.78804 138166318.94414      3816.18004        38.000  

  22378433.70304 131976378.08804      3015.08604        38.500  

  20423459.57205 121702917.56415     -1554.26205        39.200  

  22301286.39244 131570966.18844     -2515.28144        38.500  

  24080326.52144 140919881.42244      2332.96144        37.700  

  19612920.64205 117443506.77915       412.13305        39.600  

 06 10 29 01 44 38.0000000  0  9G22G 6G21G10G30G26G17G16G 1                     
  22189546.34904 130983770.73514     -3356.08204        38.400  

  22011434.81504 130047785.84514      -763.88304        38.500  

  20768866.62845 109141125.67255      1883.13745        39.200  

  23555614.59204 138162502.84614      3816.03904        38.000  

  22377859.94204 131973362.96804      3014.94104        38.200  

  20423755.38505 121704472.12515     -1554.56305        38.900  

  22301765.12644 131573481.80744     -2515.91444        38.700  

  24079882.61844 140917548.74144      2332.43844        37.900  

  19612842.26905 117443094.92815       411.46105        39.700  

 06 10 29 01 44 39.0000000  0  9G22G 6G21G10G30G26G17G16G 1                     
  22190185.01004 130987126.88814     -3356.35204        38.400  

  22011580.24004 130048550.09514      -764.53904        38.700  

  20768508.30145 109139242.74845      1882.64845        39.100  

  23554888.42304 138158686.82514      3815.98404        38.000  

  22377286.16904 131970348.01814      3014.87104        38.300  

  20424051.25605 121706026.99115     -1554.97705        39.300  

  22302243.93944 131575997.86644     -2516.16044        38.500  

  24079438.79604 140915216.52304      2332.07804        37.800  

  19612763.99305 117442683.67915       411.26605        39.800  

 06 10 29 01 44 40.0000000  0  9G22G 6G21G10G30G26G17G16G 1                     
  22190823.71904 130990483.32714     -3356.54704        38.500  

  22011725.83204 130049315.06914      -765.45704        38.600  

  20768150.05445 109137360.33145      1881.95745        39.100  

  23554162.26544 138154870.85554      3816.09844        38.000  

  22376712.49604 131967333.22314      3014.68804        38.700  

  20424347.22205 121707582.18915     -1555.56605        39.200  

  22302722.81544 131578514.37544     -2516.93844        38.300  

  24078995.07304 140912884.83314      2331.36304        38.000  

  19612685.87245 117442273.10255       410.14545        39.600  

 06 10 29 01 44 41.0000000  0  9G22G 6G21G10G30G26G17G16G 1                     
  22191462.48904 130993840.11414     -3356.83604        38.600  

  22011871.53804 130050080.80614      -766.16804        38.500  

  20767791.89045 109135478.42945      1881.68045        39.000  

  23553436.09004 138151055.01904      3815.53504        37.900  

  22376138.84804 131964318.66614      3014.60904        38.400  

  20424643.24605 121709137.76315     -1555.77705        39.300  

  22303201.76644 131581031.37044     -2517.05944        38.500  

  24078551.40904 140910553.67514      2331.03104        37.800  

  19612607.87705 117441863.20205       409.41805        39.500  

 06 10 29 01 44 42.0000000  0  9G22G 6G21G10G30G26G17G16G 1                     
  22192101.29004 130997197.20914     -3357.32004        38.600  

  22012017.39504 130050847.30514      -767.11304        38.700  

  20767433.88145 109133597.04745      1881.11345        39.200  

  23552709.98104 138147239.29214      3815.59004        37.900  

  22375565.23004 131961304.31014      3014.18004        38.400  

  20424939.32805 121710693.65315     -1555.93405        39.300  

  22303680.80104 131583548.87804     -2517.93404        38.400  

  24078107.86604 140908223.06814      2330.33604        37.900  

  19612529.99905 117441453.95615       409.09805        39.600  

 06 10 29 01 44 43.0000000  0  9G22G 6G21G10G30G26G17G16G 1                     
  22192740.25804 131000554.77914     -3357.85904        38.600  

  22012163.46504 130051614.71214      -768.10904        38.600  

  20767076.00905 109131716.35005      1880.28105        39.100  

  23551983.91604 138143423.81614      3815.44504        38.100  

  22374991.70704 131958290.31214      3013.83604        38.300  

  20425235.51305 121712250.12215     -1556.94105        39.000  

  22304159.97904 131586067.01814     -2518.52704        38.300  

  24077664.44404 140905893.15414      2329.53104        37.800  

  19612452.28605 117441045.55915       408.11305        39.400  

 06 10 29 01 44 44.0000000  0  9G22G 6G21G10G30G26G17G16G 1                     
  22193379.22804 131003912.88314     -3358.32404        38.600  

  22012309.66404 130052383.06014      -768.49604        38.600  

  20766718.27505 109129836.37915      1879.94105        39.100  

  23551257.94204 138139608.68414      3814.96104        38.100  

  22374418.19904 131955276.72114      3013.56304        38.400  

  20425531.79905 121713807.10715     -1556.98805        39.300  

  22304639.31844 131588585.83654     -2519.12944        38.300  

  24077221.24904 140903563.98714      2328.90604        37.700  

  19612374.73945 117440638.04355       407.35245        39.600  

 06 10 29 01 44 45.0000000  0  9G22G 6G21G10G30G26G17G16G 1                     
  22194018.35904 131007271.33514     -3358.57404        38.500  

  22012456.03004 130053152.24314      -769.59004        38.700  

  20766360.64205 109127956.97815      1879.05505        39.100  

  23550531.98904 138135793.67414      3815.12504        37.900  

  22373844.76804 131952263.37814      3013.15604        38.300  

  20425828.15005 121715364.50715     -1557.55105        39.300  

  22305118.71344 131591105.18844     -2519.54344        38.500  

  24076778.13304 140901235.38214      2328.15604        37.900  

  19612297.32105 117440231.27005       406.19105        39.500  

 06 10 29 01 44 46.0000000  0  9G22G 6G21G10G30G26G17G16G 1                     
  22194657.51904 131010629.99214     -3358.76204        38.400  

  22012602.52504 130053922.04214      -770.10904        38.600  

  20766003.10305 109126077.98815      1878.92205        39.300  

  23549806.02304 138131978.69514      3815.01204        38.000  

  22373271.37404 131949250.11614      3013.16804        38.300  

  20426124.55205 121716922.15815     -1557.75005        39.200  

  22305598.18844 131593624.90244     -2519.76244        38.600  

  24076335.13704 140898907.22314      2328.10904        37.900  

  19612219.99305 117439825.02415       406.17205        39.600  

 06 10 29 01 44 47.0000000  0  9G22G 6G21G10G30G26G17G16G 1                     
  22195296.62604 131013988.80914     -3358.93404        38.600  

  22012749.10504 130054692.44014      -770.60204        38.700  

  20765645.60405 109124199.34615      1878.40205        39.300  

  23549080.08004 138128163.64414      3815.07404        38.000  

  22372697.99804 131946236.90814      3013.13304        38.400  

  20426421.00605 121718479.99015     -1557.97305        39.300  

  22306077.72844 131596144.95044     -2520.27744        38.500  

  24075892.15204 140896579.42814      2327.84404        37.800  

  19612142.79245 117439419.31155       405.43045        39.600  

 06 10 29 01 44 48.0000000  0  9G22G 6G21G10G30G26G17G16G 1                     
  22195935.88604 131017347.85414     -3359.22704        38.600  

  22012895.86004 130055463.52314      -771.54304        38.700  

  20765288.17005 109122321.13915      1877.86305        39.000  

  23548354.13204 138124348.61914      3814.70304        37.900  

  22372124.60304 131943223.80714      3012.73804        38.400  

  20426717.51105 121720038.09715     -1558.32005        39.300  

  22306557.40344 131598665.38444     -2520.83244        38.600  

  24075449.28844 140894252.08754      2327.05944        38.000  

  19612065.69845 117439014.17945       404.58245        39.700  

 06 10 29 01 44 49.0000000  0  9G22G 6G21G10G30G26G17G16G 1                     
  22196575.16104 131020707.23714     -3359.59004        38.700  

  22013042.71104 130056235.39114      -772.53504        38.700  

  20764930.89504 109120443.49614      1877.41804        38.800  

  23547628.17444 138120533.72954      3814.81344        37.900  

  22371551.29904 131940210.94114      3012.61704        38.400  

  20427014.04805 121721596.58815     -1558.81605        39.200  

  22307037.13104 131601186.33804     -2521.16804        38.500  

  24075006.48504 140891925.31804      2326.45304        37.800  

  19611988.71845 117438609.72545       404.25845        39.600  

 06 10 29 01 44 50.0000000  0  9G22G 6G21G10G30G26G17G16G 1                     
  22197214.50844 131024066.97054     -3359.76244        38.500  

  22013189.73444 130057008.01854      -773.04344        38.600  

  20764573.69845 109118566.36955      1876.84845        39.200  

  23546902.27944 138116718.99144      3814.60944        37.900  

  22370978.00544 131937198.31254      3012.49644        38.700  

  20427310.65945 121723155.46155     -1558.72745        39.200  

  22307516.93944 131603707.82354     -2521.85244        38.500  

  24074563.81644 140889599.10054      2325.98844        37.700  

  19611911.89245 117438206.01945       403.34845        39.600  

 06 10 29 01 44 51.0000000  0  9G22G 6G21G10G30G26G17G16G 1                     
  22197853.92704 131027427.09004     -3360.31304        38.400  

  22013336.92504 130057781.49104      -773.84404        38.500  

  20764216.60205 109116689.86905      1876.47705        39.400  

  23546176.40504 138112904.44204      3814.43004        38.000  

  22370404.75604 131934185.91804      3012.59004        38.500  

  20427607.40905 121724714.78405     -1559.48005        39.300  

  22307996.84404 131606229.82504     -2522.18404        38.300  

  24074121.26404 140887273.51104      2325.24204        37.900  

  19611835.21905 117437803.04305       402.66405        39.600  

 06 10 29 01 44 52.0000000  0  9G22G 6G21G10G30G26G17G16G 1                     
  22198493.39344 131030787.49154     -3360.72344        38.400  

  22013484.24704 130058555.65214      -774.23804        38.800  

  20763859.61705 109114813.85115      1875.93405        39.100  

  23545450.51004 138109089.92314      3814.66004        38.100  

  22369831.56044 131931173.74254      3012.21544        38.200  

  20427904.24705 121726274.41215     -1559.70305        39.100  

  22308476.88204 131608752.28514     -2522.59804        38.300  

  24073678.82904 140884948.40014      2324.89504        38.100  

  19611758.65105 117437400.68615       402.26605        39.600  

 06 10 29 01 44 53.0000000  0  9G22G 6G21G10G30G26G17G16G 1                     
  22199132.94444 131034148.14244     -3360.66844        38.400  

  22013631.69304 130059330.54314      -775.10204        38.600  

  20763502.71105 109112938.29215      1875.19905        39.100  

  23544724.65204 138105275.49314      3814.50004        37.900  

  22369258.41944 131928161.68944      3011.92644        38.500  

  20428201.08805 121727834.33015     -1559.83205        39.300  

  22308956.97344 131611275.17054     -2522.97344        38.600  

  24073236.50604 140882623.78614      2324.19504        37.800  

  19611682.21545 117436998.98155       400.97745        39.600  

 06 10 29 01 44 54.0000000  0  9G22G 6G21G10G30G26G17G16G 1                     
  22199772.50444 131037509.20144     -3361.27744        38.300  

  22013779.33004 130060106.25314      -776.12904        38.500  

  20763145.91005 109111063.31815      1874.77005        39.300  

  23543998.82104 138101461.24514      3814.08204        37.800  

  22368685.31844 131925149.91144      3011.75444        38.400  

  20428498.01805 121729394.69315     -1560.59405        39.200  

  22309437.17544 131613798.62844     -2523.73444        38.500  

  24072794.25804 140880299.78314      2323.84404        37.800  

  19611605.90345 117436597.98745       400.78145        39.600  

 06 10 29 01 44 55.0000000  0  9G22G 6G21G10G30G26G17G16G 1                     
  22200412.15444 131040870.61044     -3361.57444        38.400  

  22013927.09144 130060882.76854      -776.93044        38.600  

  20762789.21805 109109188.92915      1873.91805        39.100  

  23543273.00704 138097647.14514      3813.93404        37.900  

  22368112.24644 131922138.40944      3011.20744        38.500  

  20428795.01405 121730955.46215     -1561.09405        39.100  

  22309917.47204 131616322.61504     -2524.35904        38.300  

  24072352.11404 140877976.37914      2323.07804        37.800  

  19611529.74445 117436197.73945       400.03945        39.600  

 06 10 29 01 44 56.0000000  0  9G22G 6G21G10G30G26G17G16G 1                     
  22201051.87044 131044232.32744     -3361.71944        38.600  

  22014075.01444 130061660.03344      -777.73844        38.800  

  20762432.63444 109107315.05054      1873.54344        38.800  

  23542547.24344 138093833.15654      3813.88344        38.000  

  22367539.22344 131919127.08244      3011.15644        38.600  

  20429092.11945 121732516.57955     -1561.47345        39.100  

  22310397.85844 131618847.05554     -2524.50844        38.500  

  24071910.11844 140875653.50354      2322.73844        37.700  

  19611453.70045 117435798.15145       399.47345        39.700  

 06 10 29 01 44 57.0000000  0  9G22G 6G21G10G30G26G17G16G 1                     
  22201691.70544 131047594.34544     -3362.06644        38.600  

  22014223.09044 130062438.00744      -778.32044        38.600  

  20762076.17105 109105441.66005      1873.17205        39.200  

  23541821.50904 138090019.23704      3813.61704        37.900  

  22366966.20544 131916115.90544      3011.30544        38.400  

  20429389.23145 121734078.00145     -1561.53145        39.200  

  22310878.32004 131621371.97004     -2525.32804        38.800  

  24071468.20244 140873331.11344      2322.16844        37.900  

  19611377.79445 117435399.20045       398.77745        39.500  

 06 10 29 01 44 58.0000000  0  9G22G 6G21G10G30G26G17G16G 1                     
  22202331.48744 131050956.62644     -3362.19944        38.500  

  22014371.29444 130063216.70744      -779.18444        38.600  

  20761719.81105 109103568.76215      1872.50405        39.300  

  23541095.77304 138086205.39114      3813.96104        38.000  

  22366393.21104 131913104.90704      3011.14504        38.500  

  20429686.39345 121735639.76245     -1561.91445        39.300  

  22311358.86004 131623897.30214     -2525.63704        38.500  

  24071026.34404 140871009.23904      2321.76204        37.900  

  19611302.00245 117435000.90245       398.09845        39.500  

 06 10 29 01 44 59.0000000  0  9G22G 6G21G10G30G26G17G16G 1                     
  22202971.35304 131054319.22904     -3362.60904        38.500  

  22014519.63704 130063996.14904      -779.69904        38.500  

  20761363.51805 109101696.36515      1871.97705        39.000  

  23540370.06244 138082391.65154      3814.16044        38.200  

  22365820.27804 131910094.14114      3010.82404        38.500  

  20429983.63145 121737201.86245     -1562.12545        39.300  

  22311839.51904 131626423.13214     -2526.00004        38.300  

  24070584.59244 140868687.90654      2321.13744        38.100  

  19611226.33805 117434603.26305       397.31605        39.400  

 06 10 29 01 45  0.0000000  0  9G22G 6G21G10G30G26G17G16G 1                     
  22203611.33404 131057682.17914     -3363.45304        38.700  

  22014668.12404 130064776.40614      -780.84404        38.700  

  20761007.30904 109099824.51414      1871.63304        38.800  

  23539644.36944 138078578.06844      3813.45744        38.200  

  22365247.39204 131907083.59614      3010.03104        38.500  

  20430280.96845 121738764.34345     -1562.59445        39.200  

  22312320.27444 131628949.44854     -2526.44144        38.400  

  24070142.96044 140866367.12544      2320.49644        38.000  

  19611150.80005 117434206.32015       396.76205        39.500  

 06 10 29 01 45  1.0000000  0  9G22G 6G21G10G30G26G17G16G 1                     
  22204251.27844 131061045.42054     -3363.76244        38.500  

  22014816.72904 130065557.37814      -781.57404        38.800  

  20760651.21205 109097953.19015      1870.87505        39.100  

  23538918.67544 138074764.58744      3813.24244        38.000  

  22364674.52004 131904073.19914      3010.32404        38.300  

  20430578.36745 121740327.20245     -1563.12945        39.300  

  22312801.11844 131631476.26644     -2527.10244        38.300  

  24069701.44644 140864046.87844      2320.21144        38.000  

  19611075.39905 117433810.06715       395.84405        39.500  

 06 10 29 01 45  2.0000000  0  9G22G 6G21G10G30G26G17G16G 1                     
  22204891.36444 131064409.00944     -3363.80944        38.400  

  22014965.48144 130066339.13754      -782.10544        38.300  

  20760295.16445 109096082.41855      1870.36345        38.900  

  23538193.01044 138070951.23144      3813.16044        38.000  

  22364101.70044 131901063.07154      3010.13744        38.300  

  20430875.84145 121741890.41745     -1563.36345        39.200  

  22313282.02544 131634003.58644     -2527.72344        38.600  

  24069260.05644 140861727.20644      2319.48844        38.000  

  19611000.13545 117433414.50555       395.21545        39.700  

 06 10 29 01 45  3.0000000  0  9G22G 6G21G10G30G26G17G16G 1                     
  22205531.52004 131067772.93104     -3364.27304        38.600  

  22015114.42204 130067121.65504      -782.77004        38.600  

  20759939.24105 109094212.17505      1870.05905        39.000  

  23537467.34744 138067138.00344      3813.35544        37.900  

  22363528.91404 131898053.16304      3009.65604        38.600  

  20431173.36205 121743453.98705     -1563.74205        39.300  

  22313763.04704 131636531.38904     -2528.07804        38.500  

  24068818.77044 140859408.06644      2318.84044        37.700  

  19610924.99345 117433019.61545       394.61745        39.500  

 06 10 29 01 45  4.0000000  0  9G22G 6G21G10G30G26G17G16G 1                     
  22206171.71004 131071137.13214     -3364.33204        38.500  

  22015263.46404 130067904.92114      -783.54704        38.600  

  20759583.42405 109092342.44015      1869.46105        39.100  

  23536741.73804 138063324.87704      3812.93804        38.100  

  22362956.17504 131895043.41614      3009.68804        38.100  

  20431470.98205 121745017.93215     -1564.10205        39.300  

  22314244.15104 131639059.66014     -2528.44104        38.300  

  24068377.56504 140857089.47304      2318.52704        37.600  

  19610849.97305 117432625.38505       394.00805        39.400  

 06 10 29 01 45  5.0000000  0  9G22G 6G21G10G30G26G17G16G 1                     
  22206811.96804 131074501.61514     -3364.77304        38.500  

  22015412.66804 130068688.87314      -784.28104        38.600  

  20759227.72905 109090473.15515      1869.03105        39.200  

  23536016.13404 138059511.78414      3812.93804        38.100  

  22362383.47704 131892033.82814      3009.37104        38.400  

  20431768.66805 121746582.15815     -1564.44505        39.400  

  22314725.37604 131641588.34314     -2528.90604        38.600  

  24067936.43204 140854771.34114      2317.85904        37.800  

  19610775.08505 117432231.78215       393.19105        39.600  

 06 10 29 01 45  6.0000000  0  9G22G 6G21G10G30G26G17G16G 1                     
  22207452.22904 131077866.41614     -3364.95304        38.500  

  22015562.00404 130069473.61214      -785.05504        38.700  

  20758872.11105 109088604.42015      1868.63705        39.000  

  23535290.55004 138055698.84014      3812.93404        38.000  

  22361810.83204 131889024.46214      3009.25404        38.200  

  20432066.41505 121748146.76815     -1564.99605        39.200  

  22315206.68504 131644117.53814     -2529.33204        38.600  

  24067495.41004 140852453.77214      2317.40204        37.900  

  19610700.29905 117431838.86215       392.53905        39.700  

 06 10 29 01 45  7.0000000  0  9G22G 6G21G10G30G26G17G16G 1                     
  22208092.63104 131081231.61514     -3365.31304        38.600  

  22015711.49104 130070259.19014      -785.91404        38.600  

  20758516.61605 109086736.30815      1867.75005        39.000  

  23534565.04004 138051886.08814      3812.53504        38.000  

  22361238.24304 131886015.39114      3008.94104        38.300  

  20432364.22205 121749711.81115     -1565.19905        39.100  

  22315688.09804 131646647.31314     -2530.01204        38.600  

  24067054.53344 140850136.84254      2316.82444        37.600  

  19610625.67845 117431446.71555       391.66045        39.600  

 06 10 29 01 45  8.0000000  0  9G22G 6G21G10G30G26G17G16G 1                     
  22208733.14644 131084597.19954     -3365.78944        38.700  

  22015861.12244 130071045.57754      -786.91844        38.500  

  20758161.20705 109084868.75915      1867.38305        39.300  

  23533839.56244 138048073.52154      3812.15244        38.000  

  22360665.66244 131883006.56654      3008.70344        38.300  

  20432662.11945 121751277.25855     -1565.87945        39.200  

  22316169.60944 131649177.61754     -2530.68044        38.600  

  24066613.73744 140847820.50244      2315.87944        37.900  

  19610551.21145 117431055.27945       390.94945        39.800  

 06 10 29 01 45  9.0000000  0  9G22G 6G21G10G30G26G17G16G 1                     
  22209373.63904 131087963.14704     -3366.27004        38.600  

  22016010.91504 130071832.75104      -787.49204        38.600  

  20757805.92105 109083001.78105      1866.84805        39.000  

  23533114.10204 138044261.06004      3812.66804        37.800  

  22360093.20104 131879997.99704      3008.52704        38.500  

  20432960.10805 121752843.12505     -1566.28505        39.200  

  22316651.20244 131651708.44944     -2531.06344        38.300  

  24066173.09904 140845504.74204      2315.53104        37.800  

  19610476.86105 117430664.59005       390.55905        39.300  

 06 10 29 01 45 10.0000000  0  9G22G 6G21G10G30G26G17G16G 1                     
  22210014.18204 131091329.27114     -3366.20304        38.600  

  22016160.84004 130072620.58314      -788.08204        38.600  

  20757450.70805 109081135.20305      1866.51205        38.900  

  23532388.65604 138040448.62514      3812.48804        38.000  

  22359520.68504 131876989.51714      3008.32004        38.600  

  20433258.14305 121754409.22315     -1566.52705        39.300  

  22317132.86644 131654239.61744     -2531.32844        38.600  

  24065732.48204 140843189.39514      2315.19104        37.900  

  19610402.61105 117430274.41415       389.92205        39.700  

 06 10 29 01 45 11.0000000  0  9G22G 6G21G10G30G26G17G16G 1                     
  22210654.79904 131094695.67414     -3366.47304        38.700  

  22016310.92404 130073409.12614      -788.89104        38.700  

  20757095.59305 109079269.13205      1865.75005        39.200  

  23531663.20504 138036636.27114      3812.63304        38.000  

  22358948.18344 131873981.19654      3008.00444        38.700  

  20433556.20905 121755975.62715     -1566.52705        39.400  

  22317614.60944 131656771.25044     -2531.74644        38.600  

  24065291.99304 140840874.55914      2314.53104        37.900  

  19610328.49405 117429884.91515       389.29705        39.600  

 06 10 29 01 45 12.0000000  0  9G22G 6G21G10G30G26G17G16G 1                     
  22211295.46144 131098062.46254     -3367.02344        38.600  

  22016461.13404 130074198.46814      -789.87904        38.800  

  20756740.58605 109077403.60305      1865.25805        39.200  

  23530937.78504 138032824.09014      3812.09404        38.200  

  22358375.78644 131870973.10844      3008.23044        38.500  

  20433854.36505 121757542.45115     -1567.26205        39.300  

  22318096.47044 131659303.41744     -2532.37944        38.600  

  24064851.61944 140838560.31654      2313.68444        37.800  

  19610254.52605 117429496.13715       388.31605        39.400  

 06 10 29 01 45 13.0000000  0  9G22G 6G21G10G30G26G17G16G 1                     
  22211936.27244 131101429.58344     -3367.22744        38.600  

  22016611.47504 130074988.58714      -790.42204        38.700  

  20756385.69605 109075538.64005      1864.77305        38.900  

  23530212.36904 138029012.02114      3812.16804        38.000  

  22357803.46004 131867965.30204      3007.73004        38.600  

  20434152.62105 121759109.65415     -1567.30905        39.200  

  22318578.43004 131661836.08104     -2533.00404        38.400  

  24064411.33844 140836246.62644      2313.45344        37.700  

  19610180.67805 117429108.03315       387.82805        39.500  

 06 10 29 01 45 14.0000000  0  9G22G 6G21G10G30G26G17G16G 1                     
  22212577.07144 131104796.95744     -3367.43044        38.400  

  22016761.96644 130075779.41254      -791.18844        38.600  

  20756030.89445 109073674.16745      1864.05145        38.900  

  23529486.96444 138025200.02854      3812.09844        37.800  

  22357231.09644 131864957.61154      3007.51644        38.500  

  20434450.89045 121760677.16555     -1567.82845        39.200  

  22319060.48244 131664369.18954     -2533.53544        38.600  

  24063971.14744 140833933.42444      2313.11344        38.100  

  19610106.96945 117428720.57255       387.17645        39.600  

 06 10 29 01 45 15.0000000  0  9G22G 6G21G10G30G26G17G16G 1                     
  22213217.93604 131108164.69604     -3367.89104        38.500  

  22016912.57004 130076571.01904      -791.83604        38.600  

  20755676.21605 109071810.21805      1863.91805        39.100  

  23528761.60604 138021388.18604      3811.82404        38.200  

  22356658.80804 131861950.16404      3007.46104        38.400  

  20434749.23205 121762245.05205     -1568.00405        39.400  

  22319542.60804 131666902.79104     -2533.73004        38.600  

  24063531.06004 140831620.81804      2312.23404        37.900  

  19610033.37545 117428333.81645       386.59045        39.600  

 06 10 29 01 45 16.0000000  0  9G22G 6G21G10G30G26G17G16G 1                     
  22213858.88904 131111532.70314     -3368.12904        38.700  

  22017063.33804 130077363.36414      -792.60504        38.600  

  20755321.62745 109069946.78655      1863.32445        39.200  

  23528036.24004 138017576.43614      3811.72304        38.100  

  22356086.55004 131858942.90614      3007.09404        38.500  

  20435047.64805 121763813.29115     -1568.36705        39.500  

  22320024.83004 131669436.86514     -2534.49204        38.400  

  24063091.10604 140829308.73114      2311.72304        37.900  

  19609959.90005 117427947.72005       385.71905        39.400  

 06 10 29 01 45 17.0000000  0  9G22G 6G21G10G30G26G17G16G 1                     
  22214499.84744 131114901.04254     -3368.32844        38.500  

  22017214.26404 130078156.47014      -793.52704        38.600  

  20754967.11845 109068083.87945      1862.63345        39.000  

  23527310.90604 138013764.77914      3811.91804        38.100  

  22355514.35104 131855935.83614      3007.01604        38.300  

  20435346.14305 121765381.88015     -1568.86305        39.500  

  22320507.12904 131671971.38614     -2534.66004        38.600  

  24062651.26004 140826997.15914      2311.30904        37.800  

  19609886.54605 117427562.27615       385.15205        39.700  

 06 10 29 01 45 18.0000000  0  9G22G 6G21G10G30G26G17G16G 1                     
  22215140.91944 131118269.72844     -3368.73044        38.800  

  22017365.35004 130078950.34814      -794.20304        38.700  

  20754612.74145 109066221.53745      1861.85945        39.000  

  23526585.63404 138009953.29614      3811.20704        38.000  

  22354942.15804 131852929.03514      3006.38704        38.400  

  20435644.70605 121766950.84615     -1569.03905        39.500  

  22320989.53504 131674506.45414     -2535.34004        38.400  

  24062211.49104 140824686.17714      2310.79304        37.800  

  19609813.34305 117427177.55915       384.31305        39.800  

 06 10 29 01 45 19.0000000  0  9G22G 6G21G10G30G26G17G16G 1                     
  22215782.02044 131121638.83844     -3369.19544        38.600  

  22017516.57104 130079745.11714      -795.37904        38.600  

  20754258.45745 109064359.82045      1861.36345        39.300  

  23525860.37804 138006142.03214      3811.07804        38.200  

  22354370.03904 131849922.51114      3006.32404        38.300  

  20435943.34205 121768520.29015     -1569.68405        39.200  

  22321472.07404 131677042.09314     -2535.63704        38.400  

  24061771.85604 140822375.84014      2310.42204        38.000  

  19609740.29205 117426793.62615       383.57405        39.300  

 06 10 29 01 45 20.0000000  0  9G22G 6G21G10G30G26G17G16G 1                     
  22216423.19644 131125008.17644     -3369.31344        38.200  

  22017667.91244 130080540.53654      -795.73044        38.400  

  20753904.31845 109062498.55845      1860.89545        38.900  

  23525135.12444 138002330.80354      3811.17244        38.000  

  22353797.94744 131846916.14554      3006.31344        38.500  

  20436242.06145 121770090.02155     -1570.07045        39.100  

  22321954.67044 131679578.16654     -2536.38344        38.500  

  24061332.29944 140820065.97954      2309.64544        38.000  

  19609667.33445 117426410.26955       383.21945        39.400  

 06 10 29 01 45 21.0000000  0  9G22G 6G21G10G30G26G17G16G 1                     
  22217064.38944 131128377.84244     -3369.60544        38.600  

  22017819.41304 130081336.71804      -796.60504        38.500  

  20753550.21045 109060637.78245      1860.40645        39.200  

  23524409.92104 137998519.66804      3811.00404        37.900  

  22353225.89204 131843909.94604      3006.21904        38.800  

  20436540.84205 121771660.09705     -1570.29705        39.100  

  22322437.35504 131682114.70604     -2536.94904        38.400  

  24060892.86404 140817756.64804      2309.21104        37.900  

  19609594.54505 117426027.61205       382.42205        39.500  

 06 10 29 01 45 22.0000000  0  9G22G 6G21G10G30G26G17G16G 1                     
  22217705.66444 131131747.80244     -3369.98844        38.600  

  22017971.08404 130082133.64314      -797.53104        38.500  

  20753196.16745 109058777.56145      1859.89145        39.300  

  23523684.72904 137994708.64014      3810.72304        38.000  

  22352653.84704 131840903.97514      3005.71904        38.400  

  20436839.68505 121773230.51415     -1570.65605        39.300  

  22322920.14004 131684651.68314     -2537.20304        38.600  

  24060453.52804 140815447.84114      2308.55904        37.700  

  19609521.85945 117425645.60855       381.68445        39.600  

 06 10 29 01 45 23.0000000  0  9G22G 6G21G10G30G26G17G16G 1                     
  22218346.98604 131135118.01704     -3369.76604        38.300  

  22018122.84944 130082931.24854      -797.49644        38.500  

  20752842.26305 109056917.77705      1859.83205        39.100  

  23522959.51804 137990897.68214      3811.25404        38.000  

  22352081.84704 131837898.11014      3006.54704        38.500  

  20437138.57805 121774801.21715     -1570.36705        39.100  

  22323403.00304 131687189.10514     -2537.27304        38.400  

  24060014.28604 140813139.52214      2308.37104        37.700  

  19609449.27745 117425264.22545       381.39545        39.600  

 06 10 29 01 45 24.0000000  0  9G22G 6G21G10G30G26G17G16G 1                     
  22218988.37904 131138488.36314     -3370.75404        38.300  

  22018274.73244 130083729.44344      -798.74244        38.300  

  20752488.40645 109055058.33055      1858.94145        39.000  

  23522234.27704 137987086.65114      3810.73404        38.100  

  22351509.83204 131834892.28814      3005.63704        38.600  

  20437437.50605 121776372.10015     -1571.16405        38.900  

  22323885.89404 131689726.82814     -2538.22304        38.400  

  24059575.11244 140810831.56654      2307.39544        37.700  

  19609376.78605 117424883.32005       380.21505        39.400  

 06 10 29 01 45 25.0000000  0  9G22G 6G21G10G30G26G17G16G 1                     
  22219629.82204 131141859.32114     -3371.17204        38.500  

  22018426.83444 130084528.68044      -799.67244        38.500  

  20752134.73305 109053199.75005      1858.16005        39.200  

  23521509.13404 137983276.02414      3810.52304        37.900  

  22350937.96144 131831886.98754      3005.18044        38.300  

  20437736.56905 121777943.66015     -1572.13305        39.100  

  22324368.93904 131692265.30914     -2538.79304        38.400  

  24059136.10644 140808524.42244      2306.94144        38.000  

  19609304.47505 117424503.37815       379.55105        39.500  

 06 10 29 01 45 26.0000000  0  9G22G 6G21G10G30G26G17G16G 1                     
  22220271.35804 131145230.69414     -3371.62104        38.500  

  22018579.08844 130085328.78444      -800.47744        38.400  

  20751781.17904 109051341.74814      1857.69104        38.800  

  23520784.03304 137979465.63414      3810.35904        38.000  

  22350366.13044 131828881.98344      3004.89844        38.400  

  20438035.74805 121779515.65015     -1572.19105        39.200  

  22324852.12404 131694804.36414     -2539.02004        38.400  

  24058697.23144 140806217.95544      2306.21144        37.800  

  19609232.32605 117424124.24215       378.73805        39.500  

 06 10 29 01 45 27.0000000  0  9G22G 6G21G10G30G26G17G16G 1                     
  22220913.00604 131148602.46314     -3371.93404        38.400  

  22018731.51504 130086129.72704      -801.53904        38.600  

  20751427.69805 109049484.38715      1856.93805        39.300  

  23520058.95204 137975655.42114      3810.03904        37.900  

  22349794.37644 131825877.27144      3004.29344        38.600  

  20438334.97405 121781088.12115     -1572.91005        39.200  

  22325335.39604 131697344.03014     -2540.10904        38.600  

  24058258.41444 140803912.12044      2305.50844        37.600  

  19609160.33205 117423745.84815       378.01205        39.400  

 06 10 29 01 45 28.0000000  0  9G22G 6G21G10G30G26G17G16G 1                     
  22221554.71944 131151974.61854     -3372.46144        38.600  

  22018884.09844 130086931.47654      -802.18844        38.400  

  20751074.36405 109047627.58515      1856.66005        39.000  

  23519333.95104 137971845.37914      3809.92204        37.900  

  22349222.59444 131822872.81044      3004.24244        38.600  

  20438634.28245 121782660.97355     -1573.12545        39.400  

  22325818.74304 131699884.19414     -2540.55904        38.700  

  24057819.73244 140801606.86844      2304.74244        37.900  

  19609088.49005 117423368.19115       377.18005        39.700  

 06 10 29 01 45 29.0000000  0  9G22G 6G21G10G30G26G17G16G 1                     
  22222196.48844 131155347.06644     -3372.57844        38.600  

  22019036.80904 130087733.97904      -803.16804        38.800  

  20750721.12005 109045771.30915      1855.97305        39.300  

  23518608.94544 137968035.45054      3809.95344        37.900  

  22348650.89144 131819868.52644      3004.06644        38.400  

  20438933.65245 121784234.17245     -1573.45745        39.300  

  22326302.20044 131702424.83154     -2540.81344        38.700  

  24057381.15404 140799302.13804      2304.56604        37.800  

  19609016.75605 117422991.18915       376.69905        39.600  

 06 10 29 01 45 30.0000000  0  9G22G 6G21G10G30G26G17G16G 1                     
  22222838.27304 131158719.75204     -3372.48404        38.600  

  22019189.66704 130088537.16914      -803.64104        38.600  

  20750367.96705 109043915.51215      1855.60505        39.000  

  23517883.97304 137964225.59604      3809.99604        37.900  

  22348079.21104 131816864.40704      3004.22704        38.400  

  20439233.06645 121785807.67145     -1573.52045        39.300  

  22326785.76704 131704965.90704     -2541.31304        38.200  

  24056942.64004 140796997.89914      2304.06304        37.800  

  19608945.13905 117422614.82615       375.99205        39.600  

 06 10 29 01 45 31.0000000  0  9G22G 6G21G10G30G26G17G16G 1                     
  22223480.13704 131162092.75314     -3373.10504        38.500  

  22019342.61804 130089341.06014      -804.06604        38.500  

  20750014.90105 109042060.19615      1855.02705        39.200  

  23517158.97804 137960415.79714      3809.62904        38.100  

  22347507.57104 131813860.46514      3003.63304        38.400  

  20439532.57745 121787381.48145     -1573.91845        39.200  

  22327269.39304 131707507.40114     -2541.73804        38.500  

  24056504.25804 140794694.17814      2303.34404        37.900  

  19608873.62605 117422239.08515       375.34005        39.500  

 06 10 29 01 45 32.0000000  0  9G22G 6G21G10G30G26G17G16G 1                     
  22224122.00944 131165465.97254     -3373.57844        38.300  

  22019495.71644 130090145.62954      -804.74644        38.700  

  20749661.91345 109040205.30855      1854.67645        39.200  

  23516433.99644 137956606.03554      3809.79344        38.200  

  22346935.96944 131810856.62354      3003.73844        38.400  

  20439832.11545 121788955.57345     -1574.22345        39.300  

  22327753.11444 131710049.29154     -2541.96144        38.600  

  24056065.96744 140792390.89754      2303.03544        37.900  

  19608802.23345 117421863.93055       374.57845        39.600  

 06 10 29 01 45 33.0000000  0  9G22G 6G21G10G30G26G17G16G 1                     
  22224763.99504 131168839.47704     -3373.48004        38.300  

  22019648.97104 130090950.98704      -805.87904        38.600  

  20749309.04205 109038350.96105      1853.84005        39.100  

  23515709.01504 137952796.39204      3809.68804        38.200  

  22346364.41504 131807853.02204      3003.27704        38.600  

  20440131.74345 121790530.02445     -1574.45745        39.400  

  22328236.90704 131712591.68504     -2542.71104        38.600  

  24055627.77604 140790088.17904      2302.54304        38.000  

  19608730.95605 117421489.45605       374.10205        39.700  

 06 10 29 01 45 34.0000000  0  9G22G 6G21G10G30G26G17G16G 1                     
  22225406.01544 131172213.34954     -3373.99244        38.600  

  22019802.36904 130091757.08014      -806.34804        38.700  

  20748956.26205 109036497.15715      1853.69105        39.100  

  23514984.08744 137948986.90354      3809.33244        37.900  

  22345792.87144 131804849.62854      3003.22744        38.600  

  20440431.42005 121792104.85205     -1574.88705        39.300  

  22328720.80604 131715134.57014     -2543.22304        38.600  

  24055189.69704 140787786.00614      2302.00804        37.700  

  19608659.83605 117421115.66915       373.55905        39.400  

 06 10 29 01 45 35.0000000  0  9G22G 6G21G10G30G26G17G16G 1                     
  22226048.09144 131175587.44344     -3374.04344        38.600  

  22019955.91944 130092563.87254      -807.12544        38.600  

  20748603.59445 109034643.80955      1853.19945        39.200  

  23514259.16404 137945177.44804      3809.18804        38.100  

  22345221.35004 131801846.35004      3003.29704        38.400  

  20440731.13605 121793679.96815     -1575.29305        39.000  

  22329204.80004 131717677.85714     -2543.80104        38.300  

  24054751.68644 140785484.30054      2301.42244        37.800  

  19608588.81105 117420742.49615       372.94905        39.600  

 06 10 29 01 45 36.0000000  0  9G22G 6G21G10G30G26G17G16G 1                     
  22226690.20904 131178961.83204     -3374.79704        38.600  

  22020109.55504 130093371.37404      -807.92604        38.600  

  20748250.99105 109032790.93205      1852.77005        39.100  

  23513534.22004 137941368.02414      3809.66804        38.100  

  22344649.86344 131798843.27054      3002.84844        38.400  

  20441030.93405 121795255.40715     -1575.91405        39.100  

  22329688.84844 131720221.56554     -2544.02744        38.500  

  24054313.77604 140783183.14204      2300.84804        37.800  

  19608517.94745 117420369.95355       372.15245        39.700  

 06 10 29 01 45 37.0000000  0  9G22G 6G21G10G30G26G17G16G 1                     
  22227332.41704 131182336.64014     -3375.09404        38.600  

  22020263.37904 130094179.76114      -808.77304        38.500  

  20747898.53305 109030938.71615      1851.87105        39.000  

  23512809.37004 137937558.90614      3809.16404        38.000  

  22344078.46104 131795840.49604      3002.41004        38.400  

  20441330.84245 121796831.30955     -1576.39545        39.200  

  22330173.03044 131722765.87844     -2544.39844        38.600  

  24053875.98204 140780882.59914      2300.21104        37.800  

  19608447.22245 117419998.21545       371.30945        39.700  

 06 10 29 01 45 38.0000000  0  9G22G 6G21G10G30G26G17G16G 1                     
  22227974.70844 131185711.80054     -3375.29344        38.300  

  22020417.35544 130094988.93554      -809.64544        38.500  

  20747546.15545 109029087.05455      1851.34045        39.200  

  23512084.54444 137933749.91754      3808.85544        37.600  

  22343507.10844 131792837.95854      3002.27744        38.600  

  20441630.77045 121798407.58145     -1576.34845        39.300  

  22330657.29244 131725310.70744     -2545.14844        38.500  

  24053438.30044 140778582.63754      2299.87544        37.700  

  19608376.61645 117419627.16845       370.60945        39.700  

 06 10 29 01 45 39.0000000  0  9G22G 6G21G10G30G26G17G16G 1                     
  22228617.03204 131189087.29904     -3375.62504        38.500  

  22020571.48204 130095798.89604      -810.59004        38.600  

  20747193.90005 109027235.96505      1850.74605        39.200  

  23511359.75804 137929941.07404      3808.75804        38.000  

  22342935.78704 131789835.66504      3002.16404        38.500  

  20441930.78505 121799984.28805     -1576.95705        39.400  

  22331141.63844 131727856.06844     -2545.55544        38.500  

  24053000.74004 140776283.27804      2298.85504        37.800  

  19608306.11845 117419256.84245       369.92245        39.700  

 06 10 29 01 45 40.0000000  0  9G22G 6G21G10G30G26G17G16G 1                     
  22229259.46104 131192463.10914     -3375.97304        38.500  

  22020725.75604 130096609.58714      -810.95304        38.300  

  20746841.74405 109025385.37615      1850.43005        39.100  

  23510634.96504 137926132.32514      3808.41404        38.100  

  22342364.50304 131786833.59214      3001.75804        38.400  

  20442230.87705 121801561.32315     -1577.54705        39.400  

  22331626.08944 131730401.89644     -2546.20344        38.400  

  24052563.27444 140773984.43554      2298.70744        37.900  

  19608235.75845 117418887.17245       369.62945        39.700  

 06 10 29 01 45 41.0000000  0  9G22G 6G21G10G30G26G17G16G 1                     
  22229901.86904 131195839.15114     -3376.05904        38.500  

  22020880.15404 130097420.96214      -811.67604        38.300  

  20746489.66905 109023535.22515      1850.03905        39.100  

  23509910.22004 137922323.63214      3808.64804        37.900  

  22341793.24704 131783831.60114      3001.86304        38.500  

  20442531.03505 121803138.61915     -1577.44905        39.500  

  22332110.63204 131732948.10704     -2546.66804        38.500  

  24052125.90744 140771686.06244      2297.82844        37.800  

  19608165.50845 117418518.10545       368.83245        39.500  

 06 10 29 01 45 42.0000000  0  9G22G 6G21G10G30G26G17G16G 1                     
  22230544.33804 131199215.47014     -3376.67604        38.600  

  22021034.67604 130098233.05414      -812.59804        38.600  

  20746137.69105 109021685.57615      1849.44505        39.000  

  23509185.46444 137918515.00854      3808.51244        37.800  

  22341222.02104 131780829.77814      3001.78104        38.500  

  20442831.24505 121804716.23715     -1577.74605        39.300  

  22332595.22804 131735494.72214     -2546.82804        38.300  

  24051688.62244 140769388.18644      2297.53144        37.800  

  19608095.40245 117418149.68445       367.98045        39.600  

 06 10 29 01 45 43.0000000  0  9G22G 6G21G10G30G26G17G16G 1                     
  22231186.86604 131202592.14914     -3376.86704        38.600  

  22021189.36604 130099045.94714      -813.29304        38.500  

  20745785.81345 109019836.50755      1848.80945        39.000  

  23508460.73104 137914706.52804      3808.50004        38.200  

  22340650.84704 131777828.24414      3001.23804        38.300  

  20443131.52205 121806294.25315     -1578.20705        39.200  

  22333079.94544 131738041.91654     -2547.49644        38.400  

  24051251.47304 140767090.90604      2297.19104        37.800  

  19608025.42005 117417781.96305       367.31305        39.700  

 06 10 29 01 45 44.0000000  0  9G22G 6G21G10G30G26G17G16G 1                     
  22231829.52944 131205969.19054     -3377.00044        38.500  

  22021344.21704 130099859.65614      -814.02704        38.700  

  20745434.07645 109017988.01845      1848.03145        39.000  

  23507736.03804 137910898.26214      3808.31304        38.000  

  22340079.73204 131774826.96814      3001.10204        38.400  

