     2.10           OBSERVATION DATA    G (GPS)             RINEX VERSION / TYPE
Convert                                 12-Aug-2008 16:35   PGM / RUN BY / DATE 
Signal Strength values S1,S2 are in dBHz                    COMMENT             
                                                            MARKER NAME         
                                                            MARKER NUMBER       
                                                            OBSERVER / AGENCY   
SVA05050095         NOV RT2             2.210               REC # / TYPE / VERS 
                                                            ANT # / TYPE        
  3991021.8930   562990.1398  4926987.2873                  APPROX POSITION XYZ 
        0.0000        0.0000        0.0000                  ANTENNA: DELTA H/E/N
     1     1                                                WAVELENGTH FACT L1/2
     1     1     7   G01   G06   G10   G16   G17   G21   G22WAVELENGTH FACT L1/2
     1     1     2   G26   G30                              WAVELENGTH FACT L1/2
                                                            COMMENT             
                                                            COMMENT             
                                                            COMMENT             
                                                            COMMENT             
                                                            COMMENT             
     8    C1    L1    D1    S1    P2    L2    D2    S2      # / TYPES OF OBSERV 
     1.000                                                  INTERVAL            
  2006    10    29    01    44    16.0000000    GPS         TIME OF FIRST OBS   
  2006    10    29    01    55     4.0000000    GPS         TIME OF LAST OBS    
    14                                                      LEAP SECONDS        
                                                            END OF HEADER       
 06 10 29 01 44 16.0000000  0  9G10G 1G26G22G 6G17G30G21G16                     
  23571609.60604 132766422.36914      3818.51204        37.900  

  19614606.43705 111972233.13315       426.23005        39.600  

  20417272.08505 116190269.02115     -1547.17205        39.200  

  22175525.63104 125429961.51814     -3349.04704        38.800  

  22008276.12004 124551049.99714      -747.73404        38.600  

  22291257.62204 126038124.05314     -2505.10504        38.700  

  22390486.85904 126559582.07514      3019.41804        38.300  

  20776773.47705 118079463.33815      1894.48005        39.100  

  24089660.26304 135488799.61214      2343.99604        37.900  

 06 10 29 01 44 17.0000000  0  9G10G 1G26G22G 6G17G30G21G16                     
  23570883.02604 132762604.14414      3818.03504        38.000  

  19614525.38645 111971807.22355       425.49645        39.600  

  20417566.48605 116191816.19515     -1547.50005        39.300  

  22176163.02804 125433310.85314     -3349.41804        38.600  

  22008418.39304 124551797.78614      -748.42604        38.700  

  22291734.40504 126040629.62614     -2506.07004        38.500  

  22389912.35444 126556562.85654      3019.10944        38.600  

  20776413.02005 118077569.17115      1893.87505        38.900  

  24089214.26604 135486455.78614      2343.65604        37.900  

 06 10 29 01 44 18.0000000  0  9G10G 1G26G22G 6G17G30G21G16                     
  23570156.43704 132758786.01114      3818.03104        38.200  

  19614444.46905 111971381.99105       424.76605        39.600  

  20417861.00005 116193363.76515     -1547.84805        39.200  

  22176800.49744 125436660.51154     -3349.76244        38.600  

  22008560.81904 124552546.31714      -748.75404        38.600  

  22292211.26004 126043135.64814     -2506.26204        38.500  

  22389337.84104 126553543.84404      3019.00804        38.400  

  20776052.66905 118075675.51815      1893.51605        39.100  

  24088768.34404 135484112.50814      2342.95704        37.600  

 06 10 29 01 44 19.0000000  0  9G10G 1G26G22G 6G17G30G21G16                     
  23569429.83804 132754967.97614      3818.10504        37.900  

  19614363.70545 111970957.39855       424.25045        39.600  

  20418155.54145 116194911.61655     -1547.86745        39.200  

  22177437.97144 125440010.46044     -3350.03544        38.600  

  22008703.39304 124553295.60314      -749.56304        38.700  

  22292688.25404 126045642.14914     -2506.63704        38.400  

  22388763.39004 126550524.99814      3018.71104        38.400  

  20775692.40105 118073782.38015      1892.82005        39.100  

  24088322.52704 135481769.72614      2342.65204        37.900  

 06 10 29 01 44 20.0000000  0  9G10G 1G26G22G 6G17G30G21G16                     
  23568703.34344 132751150.00854      3818.12544        38.000  

  19614283.02645 111970533.45845       423.79345        39.600  

  20418450.15945 116196459.81945     -1548.31345        39.300  

  22178075.51144 125443360.71244     -3350.61744        38.600  

  22008846.12044 124554045.60254      -750.41044        38.600  

  22293165.34044 126048149.10154     -2507.01244        38.500  

  22388188.99344 126547506.34454      3018.58644        38.400  

  20775332.23745 118071889.70955      1892.48445        39.100  

  24087876.84944 135479427.45154      2342.04344        37.900  

 06 10 29 01 44 21.0000000  0  9G10G 1G26G22G 6G17G30G21G16                     
  23567976.90404 132747332.15904      3817.70704        38.000  

  19614202.48705 111970110.18905       422.78105        39.400  

  20418744.80845 116198008.37445     -1548.58645        39.100  

  22178713.08644 125446711.23744     -3350.61744        38.500  

  22008988.98244 124554796.33544      -751.06344        38.800  

  22293642.48104 126050656.54704     -2507.84404        38.600  

  22387614.57504 126544487.85804      3018.60504        38.300  

  20774972.17605 118069997.55405      1892.03905        39.300  

  24087431.23004 135477085.69504      2341.59004        37.900  

 06 10 29 01 44 22.0000000  0  9G10G 1G26G22G 6G17G30G21G16                     
  23567250.44344 132743514.35454      3817.75444        38.100  

  19614122.07645 111969687.52455       422.38745        39.400  

  20419039.58145 116199557.25345     -1549.11745        39.000  

  22179350.75844 125450062.05444     -3350.71144        38.500  

  22009131.96904 124555547.80304      -751.95704        38.700  

  22294119.72204 126053164.41414     -2507.96904        38.600  

  22387040.18904 126541469.55014      3018.46504        38.500  

  20774612.20005 118068105.87215      1891.44105        39.100  

  24086985.71804 135474744.43814      2341.27004        38.000  

 06 10 29 01 44 23.0000000  0  9G10G 1G26G22G 6G17G30G21G16                     
  23566523.95404 132739696.57704      3817.61304        37.900  

  19614041.78305 111969265.47105       421.77305        39.700  

  20419334.38405 116201106.39105     -1549.16405        39.000  

  22179988.36904 125453413.12104     -3351.12904        38.400  

  22009275.07404 124556299.93314      -752.62104        38.700  

  22294597.05944 126055672.70854     -2508.61344        38.500  

  22386465.88104 126538451.36514      3017.99204        38.600  

  20774252.31905 118066214.62015      1891.17605        39.000  

  24086540.27904 135472403.64314      2340.49204        38.000  

 06 10 29 01 44 24.0000000  0  9G10G 1G26G22G 6G17G30G21G16                     
  23565797.50604 132735878.84314      3817.76204        38.000  

  19613961.60205 111968844.05715       420.93805        39.800  

  20419629.23705 116202655.82815     -1549.56305        39.200  

  22180626.05604 125456764.43714     -3351.39804        38.800  

  22009418.32004 124557052.76814      -753.26204        38.600  

  22295074.49744 126058181.40544     -2508.74244        38.600  

  22385891.60404 126535433.30914      3017.97304        38.400  

  20773892.49205 118064323.85415      1890.60205        39.200  

  24086094.84204 135470063.30914      2340.07804        37.800  

 06 10 29 01 44 25.0000000  0  9G10G 1G26G22G 6G17G30G21G16                     
  23565071.01904 132732061.28914      3817.41004        38.300  

  19613881.55505 111968423.35015       420.48005        39.400  

  20419924.17505 116204205.70415     -1550.10505        39.400  

  22181263.91504 125460116.15114     -3351.98804        38.400  

  22009561.74205 124557806.39915      -754.10205        38.900  

  22295552.00744 126060690.68644     -2509.77044        38.600  

  22385317.29904 126532415.52814      3017.71104        38.500  

  20773532.79005 118062433.66215      1889.95305        39.100  

  24085649.56904 135467723.59314      2339.41804        37.600  

 06 10 29 01 44 26.0000000  0  9G10G 1G26G22G 6G17G30G21G16                     
  23564344.61144 132728243.88754      3817.66044        38.000  

  19613801.61245 111968003.37555       419.77345        39.700  

  20420219.17545 116205755.95155     -1550.46945        39.300  

  22181901.80044 125463468.20454     -3352.06344        38.400  

  22009705.32844 124558560.85254      -754.78144        38.600  

  22296029.59244 126063200.45944     -2509.80144        38.400  

  22384743.03744 126529397.99054      3017.51644        38.500  

  20773173.20745 118060544.03155      1889.17645        39.400  

  24085204.43344 135465384.46054      2338.88744        37.900  

 06 10 29 01 44 27.0000000  0  9G10G 1G26G22G 6G17G30G21G16                     
  23563618.26604 132724426.63004      3817.10904        37.900  

  19613721.82905 111967584.12605       419.09805        39.600  

  20420514.26905 116207306.62505     -1550.75005        39.400  

  22182539.81404 125466820.63004     -3352.35204        38.300  

  22009849.06804 124559316.09804      -755.51204        38.500  

  22296507.27404 126065710.79904     -2510.66804        38.600  

  22384168.91404 126526380.70204      3017.06304        38.600  

  20772813.71905 118058654.95105      1889.02705        39.200  

  24084759.46644 135463045.89444      2338.30944        38.000  

 06 10 29 01 44 28.0000000  0  9G10G 1G26G22G 6G17G30G21G16                     
  23562891.90804 132720609.46014      3817.54304        38.000  

  19613642.16505 111967165.53215       418.20705        39.700  

  20420809.40705 116208857.63615     -1551.05905        39.300  

  22183177.78604 125470173.36514     -3352.93004        38.400  

  22009992.90104 124560072.09714      -756.34004        38.600  

  22296985.03204 126068221.57814     -2511.01604        38.600  

  22383594.78904 126523363.58514      3017.15204        38.500  

  20772454.36045 118056766.38555      1888.40245        39.000  

  24084314.57044 135460707.83244      2337.71144        38.000  

 06 10 29 01 44 29.0000000  0  9G10G 1G26G22G 6G17G30G21G16                     
  23562165.51304 132716792.27914      3817.39504        38.200  

  19613562.61645 111966747.48055       417.59845        39.700  

  20421104.61805 116210408.87315     -1551.26605        39.300  

  22183815.80904 125473526.28914     -3353.03104        38.400  

  22010136.86104 124560828.71614      -757.01604        38.800  

  22297462.88204 126070732.71514     -2511.13304        38.400  

  22383020.63104 126520346.54914      3016.94104        38.500  

  20772095.04804 118054878.21904      1887.78904        38.800  

  24083869.76044 135458370.20344      2337.23444        37.800  

 06 10 29 01 44 30.0000000  0  9G10G 1G26G22G 6G17G30G21G16                     
  23561439.21204 132712975.23014      3816.76604        38.000  

  19613483.14705 111966330.11305       416.86305        39.700  

  20421399.91045 116211960.47955     -1551.90645        39.500  

  22184453.91504 125476879.54014     -3353.40604        38.400  

  22010280.99204 124561586.08514      -757.69904        38.500  

  22297940.83904 126073244.37414     -2512.15604        38.700  

  22382446.55404 126517329.73014      3016.72704        38.400  

  20771735.84045 118052990.57455      1887.28545        39.100  

  24083424.93004 135456033.11404      2336.73004        37.900  

 06 10 29 01 44 31.0000000  0  9G10G 1G26G22G 6G17G30G21G16                     
  23560712.94104 132709158.42514      3816.55504        38.200  

  19613403.88145 111965913.56955       415.82845        39.700  

  20421695.24845 116213512.57745     -1552.54345        39.400  

  22185092.11204 125480233.25014     -3353.94104        38.700  

  22010425.29444 124562344.36554      -758.80144        38.700  

  22298418.92404 126075756.63514     -2512.55104        38.500  

  22381872.54304 126514313.26214      3016.10904        38.600  

  20771376.75445 118051103.58045      1886.76645        39.200  

  24082980.36404 135453696.71514      2335.87104        38.000  

 06 10 29 01 44 32.0000000  0  9G10G 1G26G22G 6G17G30G21G16                     
  23559986.57204 132705341.68714      3816.87104        37.900  

  19613324.71745 111965497.66645       415.69945        39.800  

  20421990.66445 116215065.02745     -1552.71145        39.200  

  22185730.31944 125483587.26154     -3354.32444        38.500  

  22010569.72244 124563103.38144      -759.12144        38.600  

  22298897.07304 126078269.36514     -2512.90604        38.300  

  22381298.56904 126511296.94214      3016.53904        38.700  

  20771017.77645 118049217.11445      1886.30545        39.100  

  24082535.83204 135451360.79714      2335.81304        37.900  

 06 10 29 01 44 33.0000000  0  9G10G 1G26G22G 6G17G30G21G16                     
  23559260.33104 132701524.97614      3816.47304        38.000  

  19613245.70945 111965082.35945       415.05545        39.700  

  20422286.12205 116216617.74005     -1553.09405        39.200  

  22186368.61104 125486941.48604     -3354.27704        38.400  

  22010714.27644 124563863.07344      -760.18844        38.600  

  22299375.35004 126080782.52714     -2513.49204        38.500  

  22380724.56904 126508280.78514      3015.94904        38.500  

  20770658.86745 118047331.05445      1885.91445        39.300  

  24082091.40404 135449025.37614      2335.25404        37.900  

 06 10 29 01 44 34.0000000  0  9G10G 1G26G22G 6G17G30G21G16                     
  23558534.09604 132697708.40514      3816.53904        37.800  

  19613166.82045 111964667.76545       414.18445        39.700  

  20422581.67605 116218170.83015     -1553.19105        39.300  

  22187006.94504 125490296.08814     -3354.79304        38.600  

  22010858.96444 124564623.54444      -760.88344        38.600  

  22299853.69744 126083296.14854     -2513.74644        38.500  

  22380150.66904 126505264.83714      3015.82004        38.400  

  20770300.09745 118045445.56545      1885.09445        39.000  

  24081647.06504 135446690.51414      2334.27304        38.000  

 06 10 29 01 44 35.0000000  0  9G10G 1G26G22G 6G17G30G21G16                     
  23557807.85904 132693892.03814      3816.34004        37.900  

  19613088.07905 111964253.91605       413.50405        39.600  

  20422877.29745 116219724.36255     -1553.96545        39.400  

  22187645.38204 125493651.05514     -3355.15604        38.600  

  22011003.82744 124565384.85644      -761.83644        38.600  

  22300332.08804 126085810.37804     -2514.69904        38.700  

  22379576.82544 126502249.17954      3015.36344        38.500  

  20769941.39605 118043560.64905      1884.76605        39.000  

  24081202.87404 135444356.25014      2333.75804        38.000  

 06 10 29 01 44 36.0000000  0  9G10G 1G26G22G 6G17G30G21G16                     
  23557081.68404 132690075.85914      3815.98804        38.100  

  19613009.44305 111963840.81115       413.00805        39.700  

  20423173.01645 116221278.33245     -1554.21945        39.300  

  22188283.90704 125497006.44414     -3355.74204        38.700  

  22011148.87644 124566146.98144      -762.60244        38.600  

  22300810.58704 126088325.12614     -2514.89504        38.600  

  22379003.03004 126499233.77504      3015.27004        38.600  

  20769582.85105 118041676.35015      1883.96505        39.000  

  24080758.77404 135442022.59014      2333.55104        37.900  

 06 10 29 01 44 37.0000000  0  9G10G 1G26G22G 6G17G30G21G16                     
  23556355.48944 132686259.77654      3816.01244        37.700  

  19612930.98605 111963428.42315       411.94105        39.600  

  20423468.82305 116222832.67605     -1554.78105        39.200  

  22188922.48104 125500362.15414     -3356.05104        38.700  

  22011294.05304 124566909.88304      -763.32404        38.500  

  22301289.21504 126090840.42314     -2515.61304        38.300  

  22378429.29304 126496218.60114      3015.16404        38.600  

  20769224.37105 118039792.59115      1883.52005        39.100  

  24080314.81204 135439689.49514      2332.51604        37.800  

 06 10 29 01 44 38.0000000  0  9G10G 1G26G22G 6G17G30G21G16                     
  23555629.35944 132682443.89944      3815.75844        37.800  

  19612852.65645 111963016.78955       411.30545        39.600  

  20423764.67845 116224387.48855     -1555.19145        39.300  

  22189561.13544 125503718.27154     -3356.23044        38.500  

  22011439.40444 124567673.66154      -764.22344        38.700  

  22301767.93744 126093356.28754     -2516.21144        38.500  

  22377855.56044 126493203.74054      3014.89544        38.500  

  20768866.01945 118037909.44955      1882.87945        39.300  

  24079870.99744 135437357.04354      2332.15244        37.800  

 06 10 29 01 44 39.0000000  0  9G10G 1G26G22G 6G17G30G21G16                     
  23554903.27344 132678628.19944      3815.76644        37.900  

  19612774.41805 111962605.86005       410.63305        39.600  

  20424060.61905 116225942.67005     -1555.40605        39.300  

  22190199.89044 125507074.74944     -3356.53544        38.700  

  22011584.87504 124568438.19304      -764.82404        38.600  

  22302246.78204 126095872.65804     -2516.62104        38.300  

  22377281.94604 126490189.11204      3014.66804        38.500  

  20768507.76445 118036026.85545      1882.46145        39.100  

  24079427.27204 135435025.15704      2331.61704        37.700  

 06 10 29 01 44 40.0000000  0  9G10G 1G26G22G 6G17G30G21G16                     
  23554177.16844 132674812.54144      3815.48444        38.000  

  19612696.33805 111962195.57615       410.07405        39.600  

  20424356.60805 116227498.17915     -1555.58605        39.300  

  22190838.67304 125510431.50604     -3356.93004        38.400  

  22011730.48704 124569203.46614      -765.59804        38.600  

  22302725.71404 126098389.48014     -2516.77704        38.500  

  22376708.34004 126487174.65514      3014.35504        38.200  

  20768149.59805 118034144.75405      1881.60205        39.200  

  24078983.63104 135432693.76914      2330.97704        37.900  

 06 10 29 01 44 41.0000000  0  9G10G 1G26G22G 6G17G30G21G16                     
  23553451.05744 132670996.84444      3815.59044        38.100  

  19612618.36545 111961785.81355       409.53545        39.600  

  20424652.63105 116229053.87315     -1555.95705        39.200  

  22191477.48704 125513788.44114     -3357.10904        38.500  

  22011876.23204 124569969.33914      -766.24604        38.600  

  22303204.70304 126100906.62414     -2517.27004        38.500  

  22376134.69444 126484160.21954      3014.53944        38.400  

  20767791.51205 118032263.00015      1881.31305        39.100  

  24078540.08204 135430362.75414      2330.98004        37.800  

 06 10 29 01 44 42.0000000  0  9G10G 1G26G22G 6G17G30G21G16                     
  23552724.98144 132667181.25444      3815.55944        38.100  

  19612540.51605 111961376.70305       408.66005        39.700  

  20424948.73405 116230609.92815     -1556.14805        39.400  

  22192116.29804 125517145.64614     -3357.35904        38.700  

  22012022.09204 124570735.95314      -767.19504        38.600  

  22303683.84704 126103424.24814     -2517.59404        38.500  

  22375561.13644 126481146.00044      3014.05544        38.200  

  20767433.53545 118030381.74855      1880.96145        39.000  

  24078096.61004 135428032.27614      2330.08604        38.000  

 06 10 29 01 44 43.0000000  0  9G10G 1G26G22G 6G17G30G21G16                     
  23551998.92344 132663365.83444      3815.46144        38.200  

  19612462.80105 111960968.35415       407.89505        39.800  

  20425244.93705 116232166.42515     -1556.75805        39.200  

  22192755.21504 125520503.27814     -3357.93804        38.600  

  22012168.13204 124571503.40114      -767.98004        38.700  

  22304163.04504 126105942.44514     -2518.55104        38.400  

  22374987.60044 126478132.05344      3013.72744        38.600  

  20767075.66605 118028501.13505      1880.20705        39.100  

  24077653.22004 135425702.43314      2329.31304        37.800  

 06 10 29 01 44 44.0000000  0  9G10G 1G26G22G 6G17G30G21G16                     
  23551272.91444 132659550.53844      3815.48044        38.300  

  19612385.22045 111960560.67055       407.58245        39.700  

  20425541.19245 116233723.26255     -1556.95745        39.400  

  22193394.19344 125523861.19154     -3357.91444        38.600  

  22012314.30044 124572271.58754      -768.48844        38.700  

  22304642.34744 126108461.09454     -2518.77744        38.500  

  22374414.09044 126475118.28244      3013.78944        38.500  

  20766717.90145 118026620.98855      1880.05545        39.000  

  24077209.95144 135423373.08154      2329.20344        37.800  

 06 10 29 01 44 45.0000000  0  9G10G 1G26G22G 6G17G30G21G16                     
  23550546.87304 132655735.33904      3815.19904        38.100  

  19612307.76405 111960153.69205       406.38705        39.700  

  20425837.52005 116235280.47105     -1557.39105        39.100  

  22194033.25804 125527219.46004     -3358.58604        38.400  

  22012460.64204 124573040.56204      -769.28904        38.600  

  22305121.72904 126110980.27104     -2519.58604        38.500  

  22373840.64044 126472104.77344      3013.25444        38.500  

  20766360.23505 118024741.40905      1879.26605        39.000  

  24076766.80904 135421044.29904      2328.35504        37.900  

 06 10 29 01 44 46.0000000  0  9G10G 1G26G22G 6G17G30G21G16                     
  23549820.90804 132651920.16514      3815.30104        38.000  

  19612230.41605 111959747.25715       406.34405        39.600  

  20426133.89105 116236837.93515     -1557.50005        39.200  

  22194672.36904 125530577.93114     -3358.46104        38.500  

  22012607.07104 124573810.16414      -769.73404        38.600  

  22305601.15304 126113499.80714     -2519.64804        38.800  

  22373267.22404 126469091.32704      3013.56604        38.700  

  20766002.64705 118022862.22015      1879.26205        39.200  

  24076323.70904 135418715.94814      2328.13304        38.000  

 06 10 29 01 44 47.0000000  0  9G10G 1G26G22G 6G17G30G21G16                     
  23549094.93904 132648105.07714      3814.96904        38.100  

  19612153.20605 111959341.47115       405.57405        39.500  

  20426430.33005 116238395.71315     -1557.95305        39.100  

  22195311.51804 125533936.68914     -3358.98004        38.400  

  22012753.65104 124574580.49414      -770.65204        38.600  

  22306080.70404 126116019.79514     -2520.38304        38.700  

  22372693.80204 126466078.05914      3013.04704        38.400  

  20765645.13205 118020983.55415      1878.41405        39.200  

  24075880.75644 135416388.10454      2327.71544        37.900  

 06 10 29 01 44 48.0000000  0  9G10G 1G26G22G 6G17G30G21G16                     
  23548368.99204 132644290.15114      3814.99204        38.100  

  19612076.13305 111958936.43615       404.62505        39.500  

  20426726.84245 116239953.93455     -1558.40645        39.300  

  22195950.79704 125537295.82914     -3359.21504        38.700  

  22012900.40004 124575351.65114      -771.62504        38.600  

  22306560.36404 126118540.33314     -2520.79704        38.500  

  22372120.45504 126463065.07314      3012.60504        38.400  

  20765287.73505 118019105.46715      1877.58205        39.300  

  24075437.89004 135414060.85404      2326.93404        37.700  

 06 10 29 01 44 49.0000000  0  9G10G 1G26G22G 6G17G30G21G16                     
  23547643.01304 132640475.26014      3814.75004        37.900  

  19611999.16905 111958532.01715       403.94505        39.600  

  20427023.41345 116241512.43945     -1558.64845        39.300  

  22196590.06944 125540655.20354     -3359.19944        38.600  

  22013047.24704 124576123.51214      -772.29304        38.700  

  22307040.10704 126121061.30014     -2521.09804        38.500  

  22371547.11904 126460052.19714      3012.93404        38.500  

  20764930.44105 118017227.81815      1877.37105        39.200  

  24074995.15704 135411734.10714      2326.57404        37.600  

 06 10 29 01 44 50.0000000  0  9G10G 1G26G22G 6G17G30G21G16                     
  23546917.08744 132636660.45354      3814.65244        37.800  

  19611922.34605 111958128.21415       403.50405        39.700  

  20427320.03445 116243071.24345     -1559.06645        39.200  

  22197229.37944 125544014.89844     -3359.94544        38.600  

  22013194.28804 124576896.08014      -773.00004        38.600  

  22307519.91544 126123582.71254     -2521.88344        38.400  

  22370973.82104 126457039.50714      3012.45304        38.400  

  20764573.23205 118015350.65215      1876.79705        39.000  

  24074552.45644 135409407.84054      2325.85944        37.700  

 06 10 29 01 44 51.0000000  0  9G10G 1G26G22G 6G17G30G21G16                     
  23546191.18404 132632845.85104      3814.64104        38.100  

  19611845.66905 111957725.18515       402.65605        39.500  

  20427616.75605 116244630.52105     -1559.49605        39.100  

  22197868.79944 125547374.97744     -3360.32444        38.700  

  22013341.45704 124577669.49114      -773.99204        38.600  

  22307999.82904 126126104.66404     -2522.13304        38.600  

  22370400.56204 126454027.09814      3012.31304        38.400  

  20764216.12105 118013474.11315      1876.27705        39.100  

  24074109.88704 135407082.19604      2325.53904        38.300  

 06 10 29 01 44 52.0000000  0  9G10G 1G26G22G 6G17G30G21G16                     
  23545465.34104 132629031.56414      3813.94104        37.800  

  19611769.13705 111957323.04215       401.53905        39.500  

  20427913.59805 116246190.34815     -1559.97305        39.100  

  22198508.26244 125550735.56744     -3360.83244        38.700  

  22013488.82904 124578443.85414      -774.90604        38.600  

  22308479.88844 126128627.33054     -2522.89844        38.400  

  22369827.36804 126451015.10414      3011.69504        38.400  

  20763859.18505 118011598.29615      1875.47705        39.200  

  24073667.47604 135404757.31414      2324.39804        38.000  

 06 10 29 01 44 53.0000000  0  9G10G 1G26G22G 6G17G30G21G16                     
  23544739.54604 132625217.44514      3813.94504        38.200  

  19611692.77405 111956921.62215       401.00005        39.500  

  20428210.48305 116247750.59215     -1560.16805        39.200  

  22199147.85744 125554096.54444     -3361.04744        38.500  

  22013636.31904 124579219.04414      -775.61304        38.600  

  22308960.06344 126131150.54844     -2523.47744        38.300  

  22369254.27504 126448003.36014      3011.86304        38.500  

  20763502.31605 118009723.06415      1874.90205        39.200  

  24073225.15404 135402433.00814      2324.09804        37.900  

 06 10 29 01 44 54.0000000  0  9G10G 1G26G22G 6G17G30G21G16                     
  23544013.71004 132621403.35214      3814.38704        38.000  

  19611616.50605 111956520.80815       400.65205        39.700  

  20428507.43905 116249311.12115     -1560.56605        39.400  

  22199787.46404 125557457.76604     -3361.45304        38.600  

  22013783.97104 124579994.89614      -775.98004        38.600  

  22309440.28944 126133674.16444     -2523.87144        38.600  

  22368681.16704 126444991.77014      3011.55504        38.600  

  20763145.55905 118007848.27415      1874.81305        39.000  

  24072782.91104 135400109.17914      2323.33204        37.800  

 06 10 29 01 44 55.0000000  0  9G10G 1G26G22G 6G17G30G21G16                     
  23543287.93704 132617589.29014      3814.04704        38.200  

  19611540.33005 111956120.56115       400.12905        39.600  

  20428804.44105 116250871.90115     -1560.84005        39.200  

  22200427.11944 125560819.20254     -3361.81644        38.600  

  22013931.77104 124580771.43314      -776.97304        38.700  

  22309920.59744 126136198.15644     -2524.21144        38.500  

  22368108.07204 126441980.27414      3011.21504        38.600  

  20762788.86805 118005973.91915      1874.00005        39.100  

  24072340.82704 135397785.77014      2323.13304        37.900  

 06 10 29 01 44 56.0000000  0  9G10G 1G26G22G 6G17G30G21G16                     
  23542562.16244 132613775.22654      3814.36744        37.900  

  19611464.27545 111955720.91255       399.43445        39.600  

  20429101.48545 116252432.96255     -1561.11745        39.200  

  22201066.83344 125564180.83644     -3361.57844        38.400  

  22014079.69644 124581548.61154      -777.46544        38.600  

  22310401.00944 126138722.55444     -2524.61344        38.600  

  22367535.04744 126438968.88254      3011.34044        38.300  

  20762432.27545 118004099.97455      1873.83245        38.900  

  24071898.76304 135395462.83714      2322.63704        37.800  

 06 10 29 01 44 57.0000000  0  9G10G 1G26G22G 6G17G30G21G16                     
  23541836.31404 132609961.17704      3814.07004        37.900  

  19611388.34405 111955321.83505       398.66805        39.600  

  20429398.58505 116253994.27405     -1561.53105        39.300  

  22201706.53904 125567542.71004     -3361.82004        38.500  

  22014227.72604 124582326.45804      -778.39804        38.500  

  22310881.46544 126141247.31744     -2524.88744        38.600  

  22366962.03104 126435957.58304      3011.18404        38.300  

  20762075.76805 118002226.46005      1873.25405        39.000  

  24071456.81304 135393140.32004      2322.13304        37.800  

 06 10 29 01 44 58.0000000  0  9G10G 1G26G22G 6G17G30G21G16                     
  23541110.54504 132606147.36114      3813.79304        38.100  

  19611312.54905 111954923.56715       397.53505        39.600  

  20429695.77105 116255556.06715     -1562.19105        39.400  

  22202346.39004 125570905.05014     -3362.72304        38.600  

  22014375.89704 124583105.18014      -779.24604        38.600  

  22311362.01504 126143772.70404     -2525.65204        38.600  

  22366389.06944 126432946.64154      3010.60944        38.400  

  20761719.37705 118000353.60215      1872.52305        39.200  

  24071014.95404 135390818.47804      2321.56604        37.900  

 06 10 29 01 44 59.0000000  0  9G10G 1G26G22G 6G17G30G21G16                     
  23540384.84804 132602333.83114      3813.37504        37.900  

  19611236.91505 111954526.08715       397.07005        39.700  

  20429993.06145 116257118.35155     -1562.75045        39.100  

  22202986.29204 125574267.80814     -3362.98804        38.600  

  22014524.25844 124583884.77054      -779.91444        38.600  

  22311842.68104 126146298.69314     -2526.30104        38.700  

  22365816.16504 126429936.01504      3010.57804        38.300  

  20761363.12945 117998481.37955      1871.98445        39.100  

  24070573.26304 135388497.31104      2320.84804        38.000  

 06 10 29 01 45  0.0000000  0  9G10G 1G26G22G 6G17G30G21G16                     
  23539659.14904 132598520.44514      3812.98804        38.000  

  19611161.41545 111954129.33055       396.47345        39.600  

  20430290.44805 116258681.03705     -1562.98005        39.200  

  22203626.22604 125577630.92614     -3363.25404        38.700  

  22014672.75004 124584665.18804      -780.59404        38.600  

  22312323.46704 126148825.22114     -2526.87904        38.500  

  22365243.28204 126426925.64514      3010.32004        38.500  

  20761006.95145 117996609.75345      1871.30545        39.100  

  24070131.67804 135386176.74404      2320.37104        37.700  

 06 10 29 01 45  1.0000000  0  9G10G 1G26G22G 6G17G30G21G16                     
  23538933.49704 132594707.15414      3813.30104        38.200  

  19611086.02705 111953733.27905       395.70705        39.500  

  20430587.88805 116260244.09015     -1563.20305        39.200  

  22204266.26904 125580994.40814     -3363.58604        38.600  

  22014821.43804 124585446.38514      -781.50404        38.800  

  22312804.35304 126151352.24514     -2527.01204        38.600  

  22364670.46704 126423915.50814      3010.09004        38.500  

  20760650.88005 117994738.65705      1870.77705        38.900  

  24069690.25304 135383856.71304      2319.90604        38.000  

 06 10 29 01 45  2.0000000  0  9G10G 1G26G22G 6G17G30G21G16                     
  23538207.89544 132590894.04054      3813.05944        37.900  

  19611010.78445 111953337.96355       395.05545        39.600  

  20430885.39345 116261807.56055     -1563.79745        39.400  

  22204906.37944 125584358.24454     -3364.02744        38.500  

  22014970.24544 124586228.39054      -782.41444        38.600  

  22313285.34544 126153879.82754     -2527.90644        38.600  

  22364097.72644 126420905.62554      3009.73844        38.400  

  20760294.94545 117992868.14755      1870.14145        39.100  

  24069248.84844 135381537.29844      2318.95344        38.000  

 06 10 29 01 45  3.0000000  0  9G10G 1G26G22G 6G17G30G21G16                     
  23537482.29304 132587081.07704      3812.81304        37.900  

  19610935.69305 111952943.32705       394.22705        39.600  

  20431182.96205 116263371.40105     -1563.98405        39.100  

  22205546.55404 125587722.39504     -3364.12104        38.700  

  22015119.19104 124587011.15204      -783.05104        38.800  

  22313766.38804 126156407.87004     -2528.03504        38.500  

  22363525.03604 126417895.95404      3009.64104        38.300  

  20759939.08405 117990998.16605      1869.40605        39.100  

  24068807.57604 135379218.40504      2318.41404        37.900  

 06 10 29 01 45  4.0000000  0  9G10G 1G26G22G 6G17G30G21G16                     
  23536756.70544 132583268.09554      3813.01244        38.000  

  19610860.69605 111952549.25415       393.71905        39.700  

  20431480.56805 116264935.49415     -1564.19505        39.400  

  22206186.79104 125591086.76514     -3364.31304        38.600  

  22015268.27304 124587794.56314      -783.69104        38.500  

  22314247.56404 126158936.29714     -2528.34004        38.700  

  22362952.34204 126414886.38214      3009.50804        38.500  

  20759583.30305 117989128.57515      1869.57405        39.200  

  24068366.39004 135376899.95314      2318.15604        37.900  

 06 10 29 01 45  5.0000000  0  9G10G 1G26G22G 6G17G30G21G16                     
  23536031.13304 132579455.12204      3812.96904        37.900  

  19610785.80905 111952155.73315       393.39805        39.600  

  20431778.26005 116266499.82615     -1564.35905        39.400  

  22206827.07104 125594451.34514     -3364.72704        38.400  

  22015417.46244 124588578.60854      -784.23844        38.700  

  22314728.75404 126161465.10914     -2529.10504        38.500  

  22362379.64204 126411876.89314      3009.26604        38.500  

  20759227.61145 117987259.41855      1868.95745        39.200  

  24067925.26204 135374581.93714      2317.78504        37.900  

 06 10 29 01 45  6.0000000  0  9G10G 1G26G22G 6G17G30G21G16                     
  23535305.55904 132575642.15814      3812.99204        38.100  

  19610711.04705 111951762.78915       392.65205        39.600  

  20432075.99005 116268064.41515     -1564.61705        39.200  

  22207467.35404 125597816.12214     -3364.75004        38.700  

  22015566.77344 124589363.31144      -784.89844        38.600  

  22315210.04904 126163994.29314     -2529.43004        38.600  

  22361806.97704 126408867.51014      3009.26204        38.600  

  20758871.99945 117985390.68045      1868.34845        39.200  

  24067484.23804 135372264.34114      2317.63704        38.000  

 06 10 29 01 45  7.0000000  0  9G10G 1G26G22G 6G17G30G21G16                     
  23534579.99904 132571829.30814      3812.86304        38.000  

  19610636.41145 111951370.55455       391.89545        39.600  

  20432373.79805 116269629.38015     -1565.20305        39.200  

  22208107.68904 125601181.25614     -3365.46504        38.600  

  22015716.23544 124590148.78844      -785.74644        38.600  

  22315691.44404 126166523.97914     -2530.07404        38.400  

  22361234.37644 126405858.34354      3009.11344        38.400  

  20758516.52045 117983522.46545      1867.92645        39.000  

  24067043.30204 135369947.33614      2316.74604        38.000  

 06 10 29 01 45  8.0000000  0  9G10G 1G26G22G 6G17G30G21G16                     
  23533854.45104 132568016.62814      3812.41404        38.100  

  19610561.88105 111950979.01005       391.26205        39.700  

  20432671.67805 116271194.73215     -1565.48805        39.000  

  22208748.11804 125604546.70714     -3365.46504        38.600  

  22015865.87344 124590935.06544      -786.77344        38.600  

  22316172.92504 126169054.16514     -2530.47304        38.600  

  22360661.83444 126402849.42644      3008.78544        38.500  

  20758161.12445 117981654.82545      1867.48445        39.200  

  24066602.48404 135367630.86814      2316.36704        37.800  

 06 10 29 01 45  9.0000000  0  9G10G 1G26G22G 6G17G30G21G16                     
  23533128.93604 132564204.07714      3812.27004        38.100  

  19610487.50405 111950588.17015       390.48005        39.600  

  20432969.62105 116272760.47615     -1565.92605        39.400  

  22209388.62304 125607912.53614     -3366.17604        38.500  

  22016015.65804 124591722.10004      -787.52704        38.700  

  22316654.48104 126171584.86014     -2531.03504        38.600  

  22360089.31644 126399840.73844      3008.46544        38.400  

  20757805.83005 117979787.74305      1866.74205        39.100  

  24066161.81404 135365314.98414      2315.64504        38.000  

 06 10 29 01 45 10.0000000  0  9G10G 1G26G22G 6G17G30G21G16                     
  23532403.47644 132560391.68054      3812.55144        38.000  

  19610413.26645 111950198.08355       389.60945        39.800  

  20433267.65705 116274326.62115     -1566.46905        39.300  

  22210029.20944 125611278.71054     -3366.27344        38.600  

  22016165.59504 124592509.95414      -788.23004        38.600  

  22317136.15904 126174116.10314     -2531.59404        38.400  

  22359516.81244 126396832.29244      3008.47744        38.500  

  20757450.63205 117977921.22215      1865.95705        39.000  

  24065721.26604 135362999.71014      2314.78504        38.000  

 06 10 29 01 45 11.0000000  0  9G10G 1G26G22G 6G17G30G21G16                     
  23531678.06244 132556579.43144      3812.21944        38.300  

  19610339.13245 111949808.65145       388.98445        39.600  

  20433565.75905 116275893.12615     -1566.72705        39.100  

  22210669.85204 125614645.19504     -3366.36704        38.500  

  22016315.65504 124593298.57314      -788.82804        38.700  

  22317617.88704 126176647.81714     -2531.68004        38.500  

  22358944.37544 126393824.07444      3008.22744        38.200  

  20757095.54805 117976055.25815      1865.67205        39.200  

  24065280.76504 135360684.97414      2314.35504        37.900  

 06 10 29 01 45 12.0000000  0  9G10G 1G26G22G 6G17G30G21G16                     
  23530952.58244 132552767.18144      3812.12144        38.000  

  19610265.13945 111949419.79145       388.48445        39.600  

  20433863.88605 116277459.87315     -1566.91005        39.300  

  22211310.52504 125618011.92514     -3366.88304        38.700  

  22016465.84304 124594087.84914      -789.54304        38.700  

  22318099.72404 126179179.91114     -2532.19104        38.600  

  22358371.95304 126390815.93704      3008.04304        38.700  

  20756740.50805 117974189.67615      1865.36305        39.200  

  24064840.37204 135358370.65514      2314.07804        38.100  

 06 10 29 01 45 13.0000000  0  9G10G 1G26G22G 6G17G30G21G16                     
  23530227.13444 132548954.97444      3812.07444        38.100  

  19610191.28345 111949031.56245       387.63745        39.700  

  20434162.08705 116279026.93315     -1567.20305        39.100  

  22211951.21304 125621378.87914     -3366.80504        38.600  

  22016616.18704 124594877.84014      -790.73004        38.700  

  22318581.64104 126181712.44814     -2532.95304        38.500  

  22357799.55304 126387807.96714      3007.93404        38.500  

  20756385.59405 117972324.57715      1864.88305        39.100  

  24064400.03544 135356056.83654      2313.61744        38.000  

 06 10 29 01 45 14.0000000  0  9G10G 1G26G22G 6G17G30G21G16                     
  23529501.77244 132545142.95744      3811.87544        37.900  

  19610117.54845 111948644.05545       387.09445        39.600  

  20434460.38445 116280594.43455     -1567.74245        39.400  

  22212592.00144 125624746.27554     -3367.75444        38.300  

  22016766.67044 124595668.61454      -791.17244        38.800  

  22319063.67844 126184245.52354     -2533.21944        38.400  

  22357227.20004 126384800.26614      3007.70704        38.600  

  20756030.77945 117970460.07255      1864.14845        39.100  

  24063959.87344 135353743.61544      2312.71944        37.900  

 06 10 29 01 45 15.0000000  0  9G10G 1G26G22G 6G17G30G21G16                     
  23528776.42404 132541331.12904      3811.96504        38.200  

  19610043.94705 111948257.31905       386.31605        39.600  

  20434758.75805 116282162.33205     -1568.07805        39.200  

  22213232.87204 125628114.00104     -3368.04704        38.700  

  22016917.31604 124596460.22304      -791.93804        38.700  

  22319545.80304 126186779.14004     -2533.91404        38.400  

  22356654.93204 126381792.83804      3007.21504        38.500  

  20755676.09345 117968596.14445      1863.80545        39.300  

  24063519.84244 135351431.02644      2312.14144        37.700  

 06 10 29 01 45 16.0000000  0  9G10G 1G26G22G 6G17G30G21G16                     
  23528051.10104 132537519.45214      3811.62104        37.900  

  19609970.48705 111947871.26815       385.67605        39.700  

  20435057.19845 116283730.65355     -1568.57845        39.300  

  22213873.79404 125631482.07614     -3367.96504        38.600  

  22017068.10104 124597252.62614      -792.67604        38.600  

  22320028.03444 126189313.28854     -2534.53944        38.600  

  22356082.67304 126378785.63304      3007.31604        38.400  

  20755321.50005 117966732.79405      1863.21105        39.100  

  24063079.88144 135349118.98444      2311.69944        37.900  

 06 10 29 01 45 17.0000000  0  9G10G 1G26G22G 6G17G30G21G16                     
  23527325.78504 132533707.88614      3811.12504        38.100  

  19609897.16705 111947485.89915       385.05905        39.700  

  20435355.69545 116285299.31045     -1568.83645        39.400  

  22214514.78244 125634850.49454     -3368.63344        38.400  

  22017219.03504 124598045.79214      -793.71904        38.800  

  22320510.36544 126191847.92544     -2535.32044        38.600  

  22355510.48904 126375778.66904      3006.68404        38.600  

  20754967.00805 117964869.97815      1862.49205        39.200  

  24062639.99944 135346807.52344      2311.24644        37.700  

 06 10 29 01 45 18.0000000  0  9G10G 1G26G22G 6G17G30G21G16                     
  23526600.50604 132529896.47714      3811.30504        38.100  

  19609823.98505 111947101.26915       384.43005        39.600  

  20435654.29645 116286868.39745     -1569.21545        39.100  

  22215155.82744 125638219.26044     -3368.73444        38.500  

  22017370.10004 124598839.76114      -794.34804        38.700  

  22320992.80844 126194383.06444     -2535.40644        38.300  

  22354938.33604 126372771.94104      3006.57404        38.600  

  20754612.60205 117963007.73715      1862.08605        39.200  

  24062200.29604 135344496.60404      2310.71904        37.700  

 06 10 29 01 45 19.0000000  0  9G10G 1G26G22G 6G17G30G21G16                     
  23525875.24804 132526085.14514      3811.17604        38.000  

  19609750.90805 111946717.25815       383.68405        39.600  

  20435952.96345 116288437.77045     -1569.57445        39.000  

  22215796.94944 125641588.32744     -3369.23044        38.500  

  22017521.31404 124599634.43814      -794.97304        38.600  

  22321475.30644 126196918.66144     -2535.91044        38.200  

  22354366.22504 126369765.38304      3006.39504        38.500  

  20754258.34805 117961145.96815      1861.63705        39.000  

  24061760.65804 135342186.22714      2310.48804        38.000  

 06 10 29 01 45 20.0000000  0  9G10G 1G26G22G 6G17G30G21G16                     
  23525149.96144 132522273.90354      3811.16044        38.100  

  19609677.96045 111946333.90455       382.95745        39.700  

  20436251.68345 116290007.46045     -1569.68045        39.400  

  22216438.11144 125644957.63644     -3369.38744        38.500  

  22017672.67244 124600429.83154      -795.63344        38.700  

  22321957.88544 126199454.69444     -2536.42244        38.600  

  22353794.08944 126366758.97444      3006.16444        38.500  

  20753904.14645 117959284.69055      1860.94545        39.000  

  24061321.10244 135339876.33054      2309.57844        37.800  

 06 10 29 01 45 21.0000000  0  9G10G 1G26G22G 6G17G30G21G16                     
  23524424.71544 132518462.82344      3810.91044        38.000  

  19609605.16805 111945951.27705       382.09805        39.700  

  20436550.47545 116291577.58445     -1570.28145        39.200  

  22217079.32544 125648327.34244     -3369.87944        38.700  

  22017824.18604 124601226.05504      -796.84804        38.700  

  22322440.58844 126201991.27444     -2537.17244        38.600  

  22353222.06904 126363752.84604      3005.92204        38.500  

  20753550.05205 117957423.98005      1860.28505        39.300  

  24060881.67504 135337567.05304      2309.21904        38.000  

 06 10 29 01 45 22.0000000  0  9G10G 1G26G22G 6G17G30G21G16                     
  23523699.50804 132514651.92804      3810.44104        38.100  

  19609532.51805 111945569.38515       381.45705        39.600  

  20436849.32505 116293148.14705     -1570.98405        39.100  

  22217720.63804 125651697.42904     -3370.32804        38.600  

  22017975.85804 124602023.08814      -797.60504        38.700  

  22322923.39204 126204528.39204     -2537.38304        38.600  

  22352650.05404 126360746.97614      3005.65604        38.700  

  20753196.09105 117955563.86615      1859.86305        39.200  

  24060442.37704 135335258.36914      2308.47704        37.600  

 06 10 29 01 45 23.0000000  0  9G10G 1G26G22G 6G17G30G21G16                     
  23522974.36604 132510841.22214      3810.44904        38.300  

  19609459.98905 111945188.22915       380.96505        39.500  

  20437148.26805 116294719.12115     -1571.14505        39.200  

  22218361.99705 125655067.89215     -3370.70705        38.900  

  22018127.66104 124602820.94814      -798.35504        38.500  

  22323406.30804 126207066.07214     -2538.02304        38.700  

  22352078.09844 126357741.39054      3005.40644        38.500  

  20752842.24005 117953704.35215      1859.30105        39.000  

  24060003.13404 135332950.33014      2307.28904        37.800  

 06 10 29 01 45 24.0000000  0  9G10G 1G26G22G 6G17G30G21G16                     
  23522249.24004 132507030.60414      3810.64804        38.200  

  19609387.57445 111944807.75755       380.17245        39.900  

  20437447.27205 116296290.42715     -1571.53105        39.200  

  22219003.44704 125658438.66114     -3371.03904        38.600  

  22018279.64104 124603619.54614      -798.76604        38.600  

  22323889.28704 126209604.19514     -2538.34004        38.600  

  22351506.16304 126354735.99204      3005.26604        38.600  

  20752488.48605 117951845.35815      1858.71505        39.100  

  24059564.04304 135330642.75614      2307.40604        38.000  

 06 10 29 01 45 25.0000000  0  9G10G 1G26G22G 6G17G30G21G16                     
  23521524.09004 132503220.01414      3810.71504        37.800  

  19609315.29605 111944427.85305       379.66405        39.500  

  20437746.31405 116297862.02215     -1571.87105        39.400  

  22219644.93204 125661809.63414     -3370.85204        38.600  

  22018431.73104 124604418.79614      -799.19504        38.600  

  22324372.35744 126212142.72354     -2538.71144        38.300  

  22350934.27804 126351730.72114      3005.18804        38.600  

  20752134.81805 117949986.80415      1858.24205        39.000  

  24059125.01404 135328335.69214      2307.05904        37.800  

 06 10 29 01 45 26.0000000  0  9G10G 1G26G22G 6G17G30G21G16                     
  23520798.98544 132499409.50254      3810.52044        38.000  

  19609243.11245 111944048.59855       378.83645        39.700  

  20438045.42145 116299433.91355     -1572.09445        39.200  

  22220286.47444 125665180.92454     -3371.46144        38.600  

  22018583.98344 124605218.77954      -800.26244        38.700  

  22324855.50544 126214681.68144     -2539.08244        38.700  

  22350362.42344 126348725.58654      3005.05544        38.400  

  20751781.23445 117948128.68655      1858.07445        39.000  

  24058686.08244 135326029.10454      2306.32044        38.000  

 06 10 29 01 45 27.0000000  0  9G10G 1G26G22G 6G17G30G21G16                     
  23520073.88244 132495599.07644      3810.46544        38.100  

  19609171.05945 111943669.98645       378.34845        39.600  

  20438344.62945 116301006.13445     -1572.32445        39.400  

  22220928.08404 125668552.46804     -3371.77304        38.600  

  22018736.35704 124606019.49504      -801.00404        38.600  

  22325338.71504 126217221.11604     -2539.79304        38.700  

  22349790.57904 126345720.65604      3004.78104        38.600  

  20751427.73805 117946271.13005      1857.46505        38.900  

  24058247.24904 135323723.03604      2305.66004        37.900  

 06 10 29 01 45 28.0000000  0  9G10G 1G26G22G 6G17G30G21G16                     
  23519348.83104 132491788.74904      3810.13304        38.000  

  19609099.14005 111943292.02705       377.33605        39.700  

  20438643.86305 116302578.70805     -1572.96105        39.300  

  22221569.70904 125671924.30914     -3371.92204        38.600  

  22018888.85644 124606820.94054      -801.65244        38.600  

  22325822.05604 126219760.99914     -2540.26604        38.600  

  22349218.80104 126342715.91414      3004.50404        38.600  

  20751074.35405 117944414.07415      1856.40205        38.900  

  24057808.55604 135321417.48714      2305.40604        37.900  

 06 10 29 01 45 29.0000000  0  9G10G 1G26G22G 6G17G30G21G16                     
  23518623.76604 132487978.50614      3810.09004        37.900  

  19609027.33405 111942914.69615       376.88705        39.700  

  20438943.16605 116304151.58915     -1572.96505        39.000  

  22222211.40004 125675296.45314     -3372.48404        38.500  

  22019041.49844 124607623.10744      -802.62944        38.700  

  22326305.44204 126222301.30714     -2540.57804        38.500  

  22348647.02404 126339711.32214      3004.43004        38.200  

  20750721.06505 117942557.45715      1856.34805        39.400  

  24057369.93004 135319112.43014      2304.84004        37.700  

 06 10 29 01 45 30.0000000  0  9G10G 1G26G22G 6G17G30G21G16                     
  23517898.69904 132484168.29614      3810.16404        37.900  

  19608955.62905 111942537.97615       376.47705        39.700  

  20439242.52305 116305724.75315     -1573.36305        39.300  

  22222853.13704 125678668.80114     -3372.40204        38.600  

  22019194.28604 124608425.93804      -803.14504        38.600  

  22326788.93004 126224842.03714     -2540.93404        38.300  

  22348075.30604 126336706.86914      3004.45704        38.600  

  20750367.84905 117940701.33015      1855.89805        39.300  

  24056931.37804 135316807.88714      2304.16004        37.800  

 06 10 29 01 45 31.0000000  0  9G10G 1G26G22G 6G17G30G21G16                     
  23517173.67804 132480358.24914      3809.85904        38.000  

  19608884.08205 111942161.96515       375.62505        39.700  

  20439541.96805 116307298.30615     -1573.82405        39.300  

  22223494.93904 125682041.50114     -3372.80104        38.300  

  22019347.20344 124609229.55554      -803.77744        38.700  

  22327272.53804 126227383.28314     -2541.64804        38.700  

  22347503.60704 126333702.65014      3004.02004        38.600  

  20750014.73305 117938845.75515      1855.18405        39.300  

  24056492.92004 135314503.88114      2303.81604        37.700  

 06 10 29 01 45 32.0000000  0  9G10G 1G26G22G 6G17G30G21G16                     
  23516448.67544 132476548.45154      3809.83244        38.000  

  19608812.69145 111941786.79355       374.66845        39.800  

  20439841.50645 116308872.37455     -1574.20345        39.100  

  22224136.82044 125685414.71154     -3373.43444        38.500  

  22019500.27044 124610034.10844      -804.96144        38.700  

  22327756.24244 126229925.16154     -2542.16044        38.700  

  22346931.99444 126330698.80454      3003.73044        38.500  

  20749661.75745 117936990.86055      1854.65645        39.100  

  24056054.63644 135312200.58754      2302.90644        37.800  

 06 10 29 01 45 33.0000000  0  9G10G 1G26G22G 6G17G30G21G16                     
  23515723.72704 132472738.91304      3809.51604        38.100  

  19608741.46305 111941412.39505       374.00405        39.600  

  20440141.13305 116310446.92005     -1574.76605        39.300  

  22224778.78844 125688788.30044     -3373.53944        38.600  

  22019653.54144 124610839.51844      -805.77044        38.700  

  22328240.04604 126232467.62104     -2542.71104        38.500  

  22346360.44544 126327695.27244      3003.32844        38.600  

  20749308.91905 117935136.61805      1853.88305        39.000  

  24055616.48304 135309897.95904      2302.06304        37.800  

 06 10 29 01 45 34.0000000  0  9G10G 1G26G22G 6G17G30G21G16                     
  23514998.81504 132468929.52814      3809.41004        38.000  

  19608670.35205 111941038.73515       373.51205        39.600  

  20440440.84005 116312021.88515     -1575.14805        39.400  

  22225420.85244 125692162.29344     -3374.03944        38.300  

  22019806.98644 124611645.75344      -806.64144        38.600  

  22328723.97504 126235010.63814     -2543.41004        38.200  

  22345788.94544 126324692.01244      3003.14544        38.600  

  20748956.19805 117933282.95515      1853.34405        39.300  

  24055178.41204 135307595.91914      2301.83604        38.100  

 06 10 29 01 45 35.0000000  0  9G10G 1G26G22G 6G17G30G21G16                     
  23514273.90204 132465120.14014      3809.30104        37.900  

  19608599.35805 111940665.63315       372.79705        39.400  

  20440740.61105 116313597.06815     -1575.31305        39.500  

  22226062.93304 125695536.48504     -3374.45304        38.800  

  22019960.50604 124612452.60304      -807.31304        38.400  

  22329207.92904 126237553.99314     -2543.46104        38.300  

  22345217.46044 126321688.83744      3002.98844        38.500  

  20748603.53205 117931429.66515      1853.28505        39.300  

  24054740.40604 135305294.30214      2301.39104        37.600  

 06 10 29 01 45 36.0000000  0  9G10G 1G26G22G 6G17G30G21G16                     
  23513549.00404 132461310.72614      3809.55904        38.200  

  19608528.46905 111940293.03815       372.25805        39.500  

  20441040.39405 116315172.46315     -1575.72705        39.100  

  22226705.06004 125698910.80314     -3374.50004        38.500  

  22020114.14644 124613260.04854      -808.01244        38.600  

  22329691.97904 126240097.65014     -2543.76204        38.400  

  22344645.98244 126318685.66844      3003.23044        38.500  

  20748250.92505 117929576.77315      1852.69505        39.000  

  24054302.48904 135302993.06814      2300.93804        37.800  

 06 10 29 01 45 37.0000000  0  9G10G 1G26G22G 6G17G30G21G16                     
  23512824.14004 132457501.45814      3809.03504        37.800  

  19608457.71245 111939921.16855       371.48845        39.600  

  20441340.24605 116316748.23415     -1576.03905        39.200  

  22227347.24904 125702285.50114     -3375.01604        38.600  

  22020267.95704 124614068.30704      -808.73804        38.600  

  22330176.12444 126242641.88254     -2544.71144        38.500  

  22344074.55204 126315682.78604      3002.99604        38.400  

  20747898.43905 117927724.43415      1852.01605        39.200  

  24053864.68704 135300692.41814      2300.27004        37.900  

 06 10 29 01 45 38.0000000  0  9G10G 1G26G22G 6G17G30G21G16                     
  23512099.31744 132453692.39454      3809.08244        38.100  

  19608387.09645 111939550.06145       370.51245        39.600  

  20441640.20145 116318324.47755     -1576.62545        39.400  

  22227989.51444 125705660.58654     -3375.51244        38.600  

  22020421.92644 124614877.38154      -809.33244        38.700  

  22330660.39244 126245186.63344     -2544.83244        38.500  

  22343503.22344 126312680.19254      3002.40644        38.400  

  20747546.07145 117925872.73555      1851.39545        38.900  

  24053426.99744 135298392.39054      2299.86344        38.000  

 06 10 29 01 45 39.0000000  0  9G10G 1G26G22G 6G17G30G21G16                     
  23511374.50604 132449883.54604      3808.77704        38.100  

  19608316.62805 111939179.72405       369.77705        39.700  

  20441940.21005 116319901.13205     -1577.00405        39.000  

  22228631.85804 125709036.07804     -3375.73404        38.600  

  22020576.05704 124615687.33304      -810.28504        38.400  

